input_identifier,resolved_identifier,record_type,name,latitude_dd,longitude_dd,country,state,city,source_dataset,nasr_cycle_date,appears_in,source_url,notes
AARNN,AARNN,Fix / reporting point / waypoint,,36.378775,-78.01779166,US,NC,,FIX,2026-06-11,FAA-mined route text,https://www.faa.gov/air_traffic/flight_info/aeronav/Aero_Data/NASR_Subscription/2026-06-11/,"chartTypes=CONTROLLER HIGH,CONTROLLER LOW,ENROUTE HIGH"
ABI,ABI,Airport / landing facility,ABILENE RGNL,32.41133333,-99.68188888,US,TX,ABILENE,APT,2026-06-11,Original user route list,https://www.faa.gov/air_traffic/flight_info/aeronav/Aero_Data/NASR_Subscription/2026-06-11/,
ABI,ABI,Navigation aid,ABILENE,32.48133058,-99.86345369,US,TX,ABILENE,NAV,2026-06-11,Original user route list,https://www.faa.gov/air_traffic/flight_info/aeronav/Aero_Data/NASR_Subscription/2026-06-11/,type=VORTAC; status=OPERATIONAL_RESTRICTED
ALS,ALS,Airport / landing facility,SAN LUIS VALLEY RGNL/BERGMAN FLD,37.435125,-105.86787527,US,CO,ALAMOSA,APT,2026-06-11,Original user route list,https://www.faa.gov/air_traffic/flight_info/aeronav/Aero_Data/NASR_Subscription/2026-06-11/,
ALS,ALS,Navigation aid,ALAMOSA,37.34915894,-105.81553269,US,CO,ALAMOSA,NAV,2026-06-11,Original user route list,https://www.faa.gov/air_traffic/flight_info/aeronav/Aero_Data/NASR_Subscription/2026-06-11/,type=VORTAC; status=OPERATIONAL_RESTRICTED
ALWZZ,ALWZZ,Fix / reporting point / waypoint,,34.70080555,-79.41015833,US,NC,,FIX,2026-06-11,FAA-mined route text,https://www.faa.gov/air_traffic/flight_info/aeronav/Aero_Data/NASR_Subscription/2026-06-11/,"chartTypes=CONTROLLER HIGH,CONTROLLER LOW,ENROUTE HIGH"
AMG,AMG,Airport / landing facility,BACON COUNTY,31.53605777,-82.50655333,US,GA,ALMA,APT,2026-06-11,Original user route list,https://www.faa.gov/air_traffic/flight_info/aeronav/Aero_Data/NASR_Subscription/2026-06-11/,
AMG,AMG,Navigation aid,ALMA,31.536555,-82.5080888,US,GA,ALMA,NAV,2026-06-11,Original user route list,https://www.faa.gov/air_traffic/flight_info/aeronav/Aero_Data/NASR_Subscription/2026-06-11/,type=TACAN; status=OPERATIONAL_RESTRICTED
ANNEY,ANNEY,Fix / reporting point / waypoint,,26.46565833,-80.04945555,US,FL,,FIX,2026-06-11,Original user route list,https://www.faa.gov/air_traffic/flight_info/aeronav/Aero_Data/NASR_Subscription/2026-06-11/,chartTypes=NOT REQUIRED
ARD,ARD,Navigation aid,YARDLEY,40.25334247,-74.90761238,US,PA,YARDLEY,NAV,2026-06-11,Original user route list,https://www.faa.gov/air_traffic/flight_info/aeronav/Aero_Data/NASR_Subscription/2026-06-11/,type=VOR/DME; status=OPERATIONAL_RESTRICTED
ATL,ATL,Airport / landing facility,HARTSFIELD/JACKSON ATLANTA INTL,33.63669961,-84.427864,US,GA,ATLANTA,APT,2026-06-11,Original user route list,https://www.faa.gov/air_traffic/flight_info/aeronav/Aero_Data/NASR_Subscription/2026-06-11/,
ATR,ATR,Navigation aid,WATERLOO,38.80981022,-75.21132236,US,DE,WATERLOO,NAV,2026-06-11,Original user route list,https://www.faa.gov/air_traffic/flight_info/aeronav/Aero_Data/NASR_Subscription/2026-06-11/,type=VOR/DME; status=OPERATIONAL_RESTRICTED
AVE,AVE,Navigation aid,AVENAL,35.64697555,-119.97860555,US,CA,AVENAL,NAV,2026-06-11,Original user route list,https://www.faa.gov/air_traffic/flight_info/aeronav/Aero_Data/NASR_Subscription/2026-06-11/,type=VOR/DME; status=OPERATIONAL_RESTRICTED
BAAMF,BAAMF,Fix / reporting point / waypoint,,30.67032777,-82.31735277,US,GA,,FIX,2026-06-11,FAA-mined route text,https://www.faa.gov/air_traffic/flight_info/aeronav/Aero_Data/NASR_Subscription/2026-06-11/,"chartTypes=CONTROLLER HIGH,CONTROLLER LOW,ENROUTE HIGH,ENROUTE LOW,STAR"
BAE,BAE,Navigation aid,BADGER,43.11685325,-88.28434405,US,WI,MILWAUKEE,NAV,2026-06-11,Original user route list,https://www.faa.gov/air_traffic/flight_info/aeronav/Aero_Data/NASR_Subscription/2026-06-11/,type=VOR/DME; status=OPERATIONAL_IFR
BAIRN,BAIRN,Fix / reporting point / waypoint,,27.94788055,-81.11509722,US,FL,,FIX,2026-06-11,Original user route list,https://www.faa.gov/air_traffic/flight_info/aeronav/Aero_Data/NASR_Subscription/2026-06-11/,"chartTypes=CONTROLLER HIGH,CONTROLLER LOW,ENROUTE HIGH,ENROUTE LOW,IAP,SECTIONAL,SID"
BAL,BAL,Navigation aid,BALTIMORE,39.17106341,-76.66125625,US,MD,BALTIMORE,NAV,2026-06-11,Original user route list,https://www.faa.gov/air_traffic/flight_info/aeronav/Aero_Data/NASR_Subscription/2026-06-11/,type=VORTAC; status=OPERATIONAL_RESTRICTED
BAM,BAM,Airport / landing facility,BATTLE MOUNTAIN,40.59905555,-116.87433333,US,NV,BATTLE MOUNTAIN,APT,2026-06-11,Original user route list,https://www.faa.gov/air_traffic/flight_info/aeronav/Aero_Data/NASR_Subscription/2026-06-11/,
BAM,BAM,Navigation aid,BATTLE MOUNTAIN,40.56908061,-116.92225627,US,NV,BATTLE MOUNTAIN,NAV,2026-06-11,Original user route list,https://www.faa.gov/air_traffic/flight_info/aeronav/Aero_Data/NASR_Subscription/2026-06-11/,type=VORTAC; status=OPERATIONAL_RESTRICTED
BBDOL,BBDOL,Fix / reporting point / waypoint,,37.63588888,-77.84662777,US,VA,,FIX,2026-06-11,FAA-mined route text,https://www.faa.gov/air_traffic/flight_info/aeronav/Aero_Data/NASR_Subscription/2026-06-11/,"chartTypes=CONTROLLER HIGH,CONTROLLER LOW,ENROUTE HIGH,ENROUTE LOW,STAR"
BBOBO,BBOBO,Fix / reporting point / waypoint,,37.69271944,-77.13266388,US,VA,,FIX,2026-06-11,FAA-mined route text,https://www.faa.gov/air_traffic/flight_info/aeronav/Aero_Data/NASR_Subscription/2026-06-11/,"chartTypes=CONTROLLER HIGH,CONTROLLER LOW,ENROUTE HIGH"
BCE,BCE,Airport / landing facility,BRYCE CANYON,37.70644694,-112.14579972,US,UT,BRYCE CANYON,APT,2026-06-11,Original user route list,https://www.faa.gov/air_traffic/flight_info/aeronav/Aero_Data/NASR_Subscription/2026-06-11/,
BCE,BCE,Navigation aid,BRYCE CANYON,37.68918744,-112.3039023,US,UT,BRYCE CANYON,NAV,2026-06-11,Original user route list,https://www.faa.gov/air_traffic/flight_info/aeronav/Aero_Data/NASR_Subscription/2026-06-11/,type=VORTAC; status=OPERATIONAL_RESTRICTED
BDF,BDF,Navigation aid,BRADFORD,41.15973138,-89.58787305,US,IL,BRADFORD,NAV,2026-06-11,Original user route list,https://www.faa.gov/air_traffic/flight_info/aeronav/Aero_Data/NASR_Subscription/2026-06-11/,type=TACAN; status=OPERATIONAL_RESTRICTED
BDR,BDR,Airport / landing facility,BRIDGEPORT/SIKORSKY,41.16348083,-73.12617583,US,CT,BRIDGEPORT,APT,2026-06-11,Original user route list,https://www.faa.gov/air_traffic/flight_info/aeronav/Aero_Data/NASR_Subscription/2026-06-11/,
BDR,BDR,Navigation aid,BRIDGEPORT,41.16070566,-73.1244863,US,CT,BRIDGEPORT,NAV,2026-06-11,Original user route list,https://www.faa.gov/air_traffic/flight_info/aeronav/Aero_Data/NASR_Subscription/2026-06-11/,type=VOR/DME; status=OPERATIONAL_RESTRICTED
BDR,BDR,Navigation aid,BRIDGEPORT,41.16138888,-73.12583333,US,CT,BRIDGEPORT,NAV,2026-06-11,Original user route list,https://www.faa.gov/air_traffic/flight_info/aeronav/Aero_Data/NASR_Subscription/2026-06-11/,type=VOT; status=OPERATIONAL_IFR
BEATS,BEATS,Fix / reporting point / waypoint,,34.65986388,-87.68661111,US,AL,,FIX,2026-06-11,FAA-mined route text,https://www.faa.gov/air_traffic/flight_info/aeronav/Aero_Data/NASR_Subscription/2026-06-11/,"chartTypes=CONTROLLER HIGH,ENROUTE HIGH"
BIGGY,BIGGY,Fix / reporting point / waypoint,,40.41961666,-74.97270277,US,NJ,,FIX,2026-06-11,FAA-mined route text,https://www.faa.gov/air_traffic/flight_info/aeronav/Aero_Data/NASR_Subscription/2026-06-11/,"chartTypes=CONTROLLER HIGH,CONTROLLER LOW,ENROUTE HIGH,ENROUTE LOW,IAP,SID"
BITHO,BITHO,Fix / reporting point / waypoint,,28.63094166,-81.05940833,US,FL,,FIX,2026-06-11,Original user route list,https://www.faa.gov/air_traffic/flight_info/aeronav/Aero_Data/NASR_Subscription/2026-06-11/,"chartTypes=ENROUTE HIGH,ENROUTE LOW,STAR"
BIZEX,BIZEX,Fix / reporting point / waypoint,,41.28412777,-73.58061111,US,NY,,FIX,2026-06-11,FAA-mined route text,https://www.faa.gov/air_traffic/flight_info/aeronav/Aero_Data/NASR_Subscription/2026-06-11/,"chartTypes=CONTROLLER HIGH,CONTROLLER LOW,ENROUTE HIGH,ENROUTE LOW,SID,STAR"
BLD,BLD,Navigation aid,BOULDER CITY,35.99579022,-114.86357888,US,NV,BOULDER CITY,NAV,2026-06-11,Original user route list,https://www.faa.gov/air_traffic/flight_info/aeronav/Aero_Data/NASR_Subscription/2026-06-11/,type=VORTAC; status=OPERATIONAL_RESTRICTED
BLH,BLH,Airport / landing facility,BLYTHE,33.61916666,-114.71688888,US,CA,BLYTHE,APT,2026-06-11,Original user route list,https://www.faa.gov/air_traffic/flight_info/aeronav/Aero_Data/NASR_Subscription/2026-06-11/,
BLH,BLH,Navigation aid,BLYTHE,33.59606463,-114.76127336,US,CA,BLYTHE,NAV,2026-06-11,Original user route list,https://www.faa.gov/air_traffic/flight_info/aeronav/Aero_Data/NASR_Subscription/2026-06-11/,type=VORTAC; status=OPERATIONAL_RESTRICTED
BLISS,BLISS,Fix / reporting point / waypoint,,40.3274,-81.97271944,US,OH,,FIX,2026-06-11,FAA-mined route text,https://www.faa.gov/air_traffic/flight_info/aeronav/Aero_Data/NASR_Subscription/2026-06-11/,"chartTypes=CONTROLLER HIGH,CONTROLLER LOW,ENROUTE HIGH"
BLUFI,BLUFI,Fix / reporting point / waypoint,,26.89385,-79.83140555,US,FL,,FIX,2026-06-11,Original user route list,https://www.faa.gov/air_traffic/flight_info/aeronav/Aero_Data/NASR_Subscription/2026-06-11/,"chartTypes=CONTROLLER LOW,ENROUTE LOW,STAR"
BNA,BNA,Airport / landing facility,NASHVILLE INTL,36.124475,-86.67818055,US,TN,NASHVILLE,APT,2026-06-11,Original user route list,https://www.faa.gov/air_traffic/flight_info/aeronav/Aero_Data/NASR_Subscription/2026-06-11/,
BNA,BNA,Navigation aid,NASHVILLE,36.13696036,-86.68477116,US,TN,NASHVILLE,NAV,2026-06-11,Original user route list,https://www.faa.gov/air_traffic/flight_info/aeronav/Aero_Data/NASR_Subscription/2026-06-11/,type=VORTAC; status=OPERATIONAL_RESTRICTED
BOS,BOS,Airport / landing facility,GENERAL EDWARD LAWRENCE LOGAN INTL,42.36294444,-71.00638888,US,MA,BOSTON,APT,2026-06-11,Original user route list,https://www.faa.gov/air_traffic/flight_info/aeronav/Aero_Data/NASR_Subscription/2026-06-11/,
BOS,BOS,Navigation aid,BOSTON,42.35744991,-70.98954838,US,MA,BOSTON,NAV,2026-06-11,Original user route list,https://www.faa.gov/air_traffic/flight_info/aeronav/Aero_Data/NASR_Subscription/2026-06-11/,type=VOR/DME; status=OPERATIONAL_RESTRICTED
BOS,BOS,Navigation aid,BOSTON,42.35704536,-70.99016872,US,MA,BOSTON,NAV,2026-06-11,Original user route list,https://www.faa.gov/air_traffic/flight_info/aeronav/Aero_Data/NASR_Subscription/2026-06-11/,type=VOT; status=OPERATIONAL_IFR
BRIGS,BRIGS,Fix / reporting point / waypoint,,39.52353333,-74.13879722,US,NJ,,FIX,2026-06-11,Original user route list,https://www.faa.gov/air_traffic/flight_info/aeronav/Aero_Data/NASR_Subscription/2026-06-11/,"chartTypes=CONTROLLER HIGH,CONTROLLER LOW,ENROUTE HIGH,ENROUTE LOW,MILITARY SID,SECTIONAL,STAR"
BROMO,BROMO,Fix / reporting point / waypoint,,28.01063333,-82.71735833,US,FL,,FIX,2026-06-11,FAA-mined route text,https://www.faa.gov/air_traffic/flight_info/aeronav/Aero_Data/NASR_Subscription/2026-06-11/,"chartTypes=CONTROLLER HIGH,CONTROLLER LOW,ENROUTE HIGH,ENROUTE LOW,STAR"
BTG,BTG,Navigation aid,BATTLE GROUND,45.74781102,-122.59153655,US,WA,BATTLE GROUND,NAV,2026-06-11,Original user route list,https://www.faa.gov/air_traffic/flight_info/aeronav/Aero_Data/NASR_Subscription/2026-06-11/,type=VORTAC; status=OPERATIONAL_RESTRICTED
BUFFE,BUFFE,Fix / reporting point / waypoint,,38.39093333,-89.66838055,US,IL,,FIX,2026-06-11,Original user route list,https://www.faa.gov/air_traffic/flight_info/aeronav/Aero_Data/NASR_Subscription/2026-06-11/,"chartTypes=IAP,MILITARY IAP"
BUFFR,BUFFR,Fix / reporting point / waypoint,,39.45934722,-77.59831388,US,MD,,FIX,2026-06-11,FAA-mined route text,https://www.faa.gov/air_traffic/flight_info/aeronav/Aero_Data/NASR_Subscription/2026-06-11/,"chartTypes=CONTROLLER HIGH,ENROUTE HIGH,ENROUTE LOW,MILITARY SID,SID"
BULZI,BULZI,Fix / reporting point / waypoint,,30.37359166,-84.07624166,US,FL,,FIX,2026-06-11,FAA-mined route text,https://www.faa.gov/air_traffic/flight_info/aeronav/Aero_Data/NASR_Subscription/2026-06-11/,"chartTypes=CONTROLLER HIGH,CONTROLLER LOW,ENROUTE HIGH,ENROUTE LOW,STAR"
BUM,BUM,Airport / landing facility,BUTLER MEML,38.28976722,-94.34012777,US,MO,BUTLER,APT,2026-06-11,Original user route list,https://www.faa.gov/air_traffic/flight_info/aeronav/Aero_Data/NASR_Subscription/2026-06-11/,
BUM,BUM,Navigation aid,BUTLER,38.27208011,-94.48826111,US,MO,BUTLER,NAV,2026-06-11,Original user route list,https://www.faa.gov/air_traffic/flight_info/aeronav/Aero_Data/NASR_Subscription/2026-06-11/,type=VORTAC; status=OPERATIONAL_RESTRICTED
BXK,BXK,Airport / landing facility,BUCKEYE MUNI,33.42253388,-112.68623388,US,AZ,BUCKEYE,APT,2026-06-11,Original user route list,https://www.faa.gov/air_traffic/flight_info/aeronav/Aero_Data/NASR_Subscription/2026-06-11/,
BXK,BXK,Navigation aid,BUCKEYE,33.45345869,-112.82459369,US,AZ,BUCKEYE,NAV,2026-06-11,Original user route list,https://www.faa.gov/air_traffic/flight_info/aeronav/Aero_Data/NASR_Subscription/2026-06-11/,type=VORTAC; status=OPERATIONAL_RESTRICTED
BYP,BYP,Navigation aid,BONHAM,33.53748611,-96.23409444,US,TX,BONHAM,NAV,2026-06-11,Original user route list,https://www.faa.gov/air_traffic/flight_info/aeronav/Aero_Data/NASR_Subscription/2026-06-11/,type=VORTAC; status=OPERATIONAL_IFR
BZNGA,BZNGA,Fix / reporting point / waypoint,,36.41466666,-78.49696666,US,NC,,FIX,2026-06-11,FAA-mined route text,https://www.faa.gov/air_traffic/flight_info/aeronav/Aero_Data/NASR_Subscription/2026-06-11/,"chartTypes=CONTROLLER HIGH,CONTROLLER LOW,ENROUTE HIGH,ENROUTE LOW"
CAMJO,CAMJO,Fix / reporting point / waypoint,,30.50888888,-82.68638888,US,FL,,FIX,2026-06-11,FAA-mined route text,https://www.faa.gov/air_traffic/flight_info/aeronav/Aero_Data/NASR_Subscription/2026-06-11/,"chartTypes=CONTROLLER HIGH,CONTROLLER LOW,ENROUTE HIGH,ENROUTE LOW,SID,STAR"
CAMRN,CAMRN,Fix / reporting point / waypoint,,40.01730277,-73.86105833,US,NJ,,FIX,2026-06-11,Original user route list,https://www.faa.gov/air_traffic/flight_info/aeronav/Aero_Data/NASR_Subscription/2026-06-11/,"chartTypes=CONTROLLER HIGH,CONTROLLER LOW,ENROUTE HIGH,ENROUTE LOW,IAP,SID,STAR"
CANDI,CANDI,Fix / reporting point / waypoint,,29.65378055,-95.30251666,US,TX,,FIX,2026-06-11,Original user route list,https://www.faa.gov/air_traffic/flight_info/aeronav/Aero_Data/NASR_Subscription/2026-06-11/,chartTypes=MILITARY IAP
CARIN,CARIN,Fix / reporting point / waypoint,,34.45416111,-90.88695833,US,AR,,FIX,2026-06-11,FAA-mined route text,https://www.faa.gov/air_traffic/flight_info/aeronav/Aero_Data/NASR_Subscription/2026-06-11/,"chartTypes=CONTROLLER HIGH,ENROUTE HIGH"
CHS,CHS,Airport / landing facility,CHARLESTON AFB/INTL,32.89863888,-80.04052777,US,SC,CHARLESTON,APT,2026-06-11,Original user route list,https://www.faa.gov/air_traffic/flight_info/aeronav/Aero_Data/NASR_Subscription/2026-06-11/,
CHS,CHS,Navigation aid,CHARLESTON,32.89431919,-80.03781427,US,SC,CHARLESTON,NAV,2026-06-11,Original user route list,https://www.faa.gov/air_traffic/flight_info/aeronav/Aero_Data/NASR_Subscription/2026-06-11/,type=VORTAC; status=OPERATIONAL_RESTRICTED
CJAAE,CJAAE,Fix / reporting point / waypoint,,37.8638,-80.39202777,US,WV,,FIX,2026-06-11,FAA-mined route text,https://www.faa.gov/air_traffic/flight_info/aeronav/Aero_Data/NASR_Subscription/2026-06-11/,"chartTypes=CONTROLLER HIGH,CONTROLLER LOW,ENROUTE HIGH,ENROUTE LOW,STAR"
CLARR,CLARR,Fix / reporting point / waypoint,,35.67568055,-115.67975277,US,CA,,FIX,2026-06-11,Original user route list,https://www.faa.gov/air_traffic/flight_info/aeronav/Aero_Data/NASR_Subscription/2026-06-11/,"chartTypes=CONTROLLER HIGH,CONTROLLER LOW,ENROUTE HIGH,ENROUTE LOW"
COATE,COATE,Fix / reporting point / waypoint,,41.13622777,-74.69516666,US,NJ,,FIX,2026-06-11,Original user route list + FAA-mined route text,https://www.faa.gov/air_traffic/flight_info/aeronav/Aero_Data/NASR_Subscription/2026-06-11/,"chartTypes=CONTROLLER HIGH,CONTROLLER LOW,ENROUTE HIGH,ENROUTE LOW,IAP,SID"
CONFR,CONFR,Fix / reporting point / waypoint,,38.26969444,-75.40916111,US,MD,,FIX,2026-06-11,FAA-mined route text,https://www.faa.gov/air_traffic/flight_info/aeronav/Aero_Data/NASR_Subscription/2026-06-11/,"chartTypes=CONTROLLER HIGH,CONTROLLER LOW,ENROUTE HIGH"
COPES,COPES,Fix / reporting point / waypoint,,40.13071388,-75.37676944,US,PA,,FIX,2026-06-11,FAA-mined route text,https://www.faa.gov/air_traffic/flight_info/aeronav/Aero_Data/NASR_Subscription/2026-06-11/,"chartTypes=CONTROLLER HIGH,CONTROLLER LOW,ENROUTE HIGH"
CREEP,CREEP,Fix / reporting point / waypoint,,39.92091111,-84.308725,US,OH,,FIX,2026-06-11,FAA-mined route text,https://www.faa.gov/air_traffic/flight_info/aeronav/Aero_Data/NASR_Subscription/2026-06-11/,"chartTypes=CONTROLLER HIGH,CONTROLLER LOW,ENROUTE HIGH,SID"
CRG,CRG,Airport / landing facility,JACKSONVILLE EXEC AT CRAIG,30.33633333,-81.51444444,US,FL,JACKSONVILLE,APT,2026-06-11,Original user route list,https://www.faa.gov/air_traffic/flight_info/aeronav/Aero_Data/NASR_Subscription/2026-06-11/,
CRG,CRG,Navigation aid,CRAIG,30.33887919,-81.50992733,US,FL,JACKSONVILLE,NAV,2026-06-11,Original user route list,https://www.faa.gov/air_traffic/flight_info/aeronav/Aero_Data/NASR_Subscription/2026-06-11/,type=VORTAC; status=OPERATIONAL_IFR
CRPLR,CRPLR,Fix / reporting point / waypoint,,37.60666944,-76.16601944,US,VA,,FIX,2026-06-11,FAA-mined route text,https://www.faa.gov/air_traffic/flight_info/aeronav/Aero_Data/NASR_Subscription/2026-06-11/,"chartTypes=CONTROLLER HIGH,CONTROLLER LOW,ENROUTE HIGH"
DACOS,DACOS,Fix / reporting point / waypoint,,38.20421388,-84.24104166,US,KY,,FIX,2026-06-11,FAA-mined route text,https://www.faa.gov/air_traffic/flight_info/aeronav/Aero_Data/NASR_Subscription/2026-06-11/,chartTypes=ENROUTE HIGH
DADDS,DADDS,Fix / reporting point / waypoint,,35.60843055,-78.78908333,US,NC,,FIX,2026-06-11,FAA-mined route text,https://www.faa.gov/air_traffic/flight_info/aeronav/Aero_Data/NASR_Subscription/2026-06-11/,"chartTypes=CONTROLLER HIGH,CONTROLLER LOW,ENROUTE HIGH"
DAG,DAG,Airport / landing facility,BARSTOW-DAGGETT,34.85372222,-116.78669444,US,CA,DAGGETT,APT,2026-06-11,Original user route list,https://www.faa.gov/air_traffic/flight_info/aeronav/Aero_Data/NASR_Subscription/2026-06-11/,
DAG,DAG,Navigation aid,DAGGETT,34.96245694,-116.57816638,US,CA,DAGGETT,NAV,2026-06-11,Original user route list,https://www.faa.gov/air_traffic/flight_info/aeronav/Aero_Data/NASR_Subscription/2026-06-11/,type=VORTAC; status=OPERATIONAL_IFR
DANDD,DANDD,Fix / reporting point / waypoint,,39.39709444,-103.93913333,US,CO,,FIX,2026-06-11,Original user route list,https://www.faa.gov/air_traffic/flight_info/aeronav/Aero_Data/NASR_Subscription/2026-06-11/,"chartTypes=CONTROLLER HIGH,ENROUTE HIGH,STAR"
DCA,DCA,Airport / landing facility,RONALD REAGAN WASHINGTON NTL,38.85144027,-77.03772138,US,DC,WASHINGTON,APT,2026-06-11,Original user route list,https://www.faa.gov/air_traffic/flight_info/aeronav/Aero_Data/NASR_Subscription/2026-06-11/,
DCA,DCA,Navigation aid,WASHINGTON,38.85945277,-77.03643611,US,DC,WASHINGTON,NAV,2026-06-11,Original user route list,https://www.faa.gov/air_traffic/flight_info/aeronav/Aero_Data/NASR_Subscription/2026-06-11/,type=VOR/DME; status=OPERATIONAL_RESTRICTED
DEBRL,DEBRL,Fix / reporting point / waypoint,,29.29686944,-81.13413333,US,FL,,FIX,2026-06-11,FAA-mined route text,https://www.faa.gov/air_traffic/flight_info/aeronav/Aero_Data/NASR_Subscription/2026-06-11/,"chartTypes=CONTROLLER HIGH,CONTROLLER LOW,ENROUTE HIGH,ENROUTE LOW,STAR"
DEN,DEN,Airport / landing facility,DENVER INTL,39.86166666,-104.67316666,US,CO,DENVER,APT,2026-06-11,Original user route list,https://www.faa.gov/air_traffic/flight_info/aeronav/Aero_Data/NASR_Subscription/2026-06-11/,
DEN,DEN,Navigation aid,DENVER,39.81251405,-104.66074008,US,CO,DENVER,NAV,2026-06-11,Original user route list,https://www.faa.gov/air_traffic/flight_info/aeronav/Aero_Data/NASR_Subscription/2026-06-11/,type=VOR/DME; status=OPERATIONAL_RESTRICTED
DEN,DEN,Navigation aid,DENVER,39.870467,-104.65483177,US,CO,DENVER,NAV,2026-06-11,Original user route list,https://www.faa.gov/air_traffic/flight_info/aeronav/Aero_Data/NASR_Subscription/2026-06-11/,type=VOT; status=OPERATIONAL_IFR
DFENC,DFENC,Fix / reporting point / waypoint,,35.91974722,-77.06042777,US,NC,,FIX,2026-06-11,FAA-mined route text,https://www.faa.gov/air_traffic/flight_info/aeronav/Aero_Data/NASR_Subscription/2026-06-11/,"chartTypes=CONTROLLER HIGH,CONTROLLER LOW,ENROUTE HIGH"
DFW,DFW,Airport / landing facility,DALLAS-FORT WORTH INTL,32.89723305,-97.03769472,US,TX,DALLAS-FORT WORTH,APT,2026-06-11,Original user route list,https://www.faa.gov/air_traffic/flight_info/aeronav/Aero_Data/NASR_Subscription/2026-06-11/,
DIXIE,DIXIE,Fix / reporting point / waypoint,,40.09936666,-74.16449166,US,NJ,,FIX,2026-06-11,Original user route list,https://www.faa.gov/air_traffic/flight_info/aeronav/Aero_Data/NASR_Subscription/2026-06-11/,"chartTypes=CONTROLLER HIGH,CONTROLLER LOW,ENROUTE HIGH,ENROUTE LOW,MILITARY SID,SECTIONAL,SID"
DJB,DJB,Navigation aid,DRYER,41.35806497,-82.16196869,US,OH,CLEVELAND,NAV,2026-06-11,Original user route list + FAA-mined route text,https://www.faa.gov/air_traffic/flight_info/aeronav/Aero_Data/NASR_Subscription/2026-06-11/,type=VOR/DME; status=OPERATIONAL_RESTRICTED
DLL,DLL,Airport / landing facility,BARABOO/WISCONSIN DELLS RGNL,43.52202555,-89.77123805,US,WI,BARABOO,APT,2026-06-11,Original user route list,https://www.faa.gov/air_traffic/flight_info/aeronav/Aero_Data/NASR_Subscription/2026-06-11/,
DLL,DLL,Navigation aid,DELLS,43.55083561,-89.76362247,US,WI,BARABOO,NAV,2026-06-11,Original user route list,https://www.faa.gov/air_traffic/flight_info/aeronav/Aero_Data/NASR_Subscription/2026-06-11/,type=VORTAC; status=OPERATIONAL_RESTRICTED
DORET,DORET,Fix / reporting point / waypoint,,41.80163888,-80.58462222,US,OH,,FIX,2026-06-11,FAA-mined route text,https://www.faa.gov/air_traffic/flight_info/aeronav/Aero_Data/NASR_Subscription/2026-06-11/,"chartTypes=CONTROLLER HIGH,ENROUTE HIGH,SID"
DORRN,DORRN,Fix / reporting point / waypoint,,37.53167777,-77.89378333,US,VA,,FIX,2026-06-11,FAA-mined route text,https://www.faa.gov/air_traffic/flight_info/aeronav/Aero_Data/NASR_Subscription/2026-06-11/,"chartTypes=CONTROLLER HIGH,CONTROLLER LOW,ENROUTE HIGH,ENROUTE LOW,STAR"
DSM,DSM,Airport / landing facility,DES MOINES INTL,41.53397277,-93.66307222,US,IA,DES MOINES,APT,2026-06-11,Original user route list,https://www.faa.gov/air_traffic/flight_info/aeronav/Aero_Data/NASR_Subscription/2026-06-11/,
DSM,DSM,Navigation aid,DES MOINES,41.4376248,-93.64855794,US,IA,DES MOINES,NAV,2026-06-11,Original user route list,https://www.faa.gov/air_traffic/flight_info/aeronav/Aero_Data/NASR_Subscription/2026-06-11/,type=VORTAC; status=OPERATIONAL_RESTRICTED
DSM,DSM,Navigation aid,DES MOINES,41.53899808,-93.65742563,US,IA,DES MOINES,NAV,2026-06-11,Original user route list,https://www.faa.gov/air_traffic/flight_info/aeronav/Aero_Data/NASR_Subscription/2026-06-11/,type=VOT; status=OPERATIONAL_IFR
DTW,DTW,Airport / landing facility,DETROIT METRO WAYNE COUNTY,42.21243111,-83.35339333,US,MI,DETROIT,APT,2026-06-11,Original user route list,https://www.faa.gov/air_traffic/flight_info/aeronav/Aero_Data/NASR_Subscription/2026-06-11/,
DTW,DTW,Navigation aid,DETROIT MET WAYNE,42.23166666,-83.35833333,US,MI,DETROIT,NAV,2026-06-11,Original user route list,https://www.faa.gov/air_traffic/flight_info/aeronav/Aero_Data/NASR_Subscription/2026-06-11/,type=VOT; status=OPERATIONAL_IFR
DUCEN,DUCEN,Fix / reporting point / waypoint,,29.27606388,-81.32312222,US,FL,,FIX,2026-06-11,FAA-mined route text,https://www.faa.gov/air_traffic/flight_info/aeronav/Aero_Data/NASR_Subscription/2026-06-11/,"chartTypes=CONTROLLER HIGH,CONTROLLER LOW,ENROUTE HIGH,ENROUTE LOW,SID"
DVC,DVC,Navigation aid,DOVE CREEK,37.80873972,-108.93127388,US,CO,DOVE CREEK,NAV,2026-06-11,Original user route list,https://www.faa.gov/air_traffic/flight_info/aeronav/Aero_Data/NASR_Subscription/2026-06-11/,type=VORTAC; status=OPERATIONAL_RESTRICTED
EARND,EARND,Fix / reporting point / waypoint,,41.42527777,-87.57222222,US,IL,,FIX,2026-06-11,FAA-mined route text,https://www.faa.gov/air_traffic/flight_info/aeronav/Aero_Data/NASR_Subscription/2026-06-11/,"chartTypes=CONTROLLER HIGH,CONTROLLER LOW,ENROUTE HIGH,ENROUTE LOW,SID,STAR"
EAU,EAU,Airport / landing facility,CHIPPEWA VALLEY RGNL,44.86580555,-91.48425,US,WI,EAU CLAIRE,APT,2026-06-11,Original user route list,https://www.faa.gov/air_traffic/flight_info/aeronav/Aero_Data/NASR_Subscription/2026-06-11/,
EAU,EAU,Navigation aid,EAU CLAIRE,44.89767002,-91.47853497,US,WI,EAU CLAIRE,NAV,2026-06-11,Original user route list,https://www.faa.gov/air_traffic/flight_info/aeronav/Aero_Data/NASR_Subscription/2026-06-11/,type=VORTAC; status=OPERATIONAL_RESTRICTED
EFFAY,EFFAY,Fix / reporting point / waypoint,,34.25851944,-80.51053888,US,SC,,FIX,2026-06-11,FAA-mined route text,https://www.faa.gov/air_traffic/flight_info/aeronav/Aero_Data/NASR_Subscription/2026-06-11/,"chartTypes=CONTROLLER HIGH,ENROUTE HIGH"
ELANR,ELANR,Fix / reporting point / waypoint,,41.20166666,-87.53333333,US,IL,,FIX,2026-06-11,FAA-mined route text,https://www.faa.gov/air_traffic/flight_info/aeronav/Aero_Data/NASR_Subscription/2026-06-11/,"chartTypes=CONTROLLER HIGH,CONTROLLER LOW,ENROUTE HIGH,ENROUTE LOW,SID,STAR"
ELLDE,ELLDE,Fix / reporting point / waypoint,,34.40404722,-78.69738888,US,NC,,FIX,2026-06-11,FAA-mined route text,https://www.faa.gov/air_traffic/flight_info/aeronav/Aero_Data/NASR_Subscription/2026-06-11/,"chartTypes=CONTROLLER HIGH,CONTROLLER LOW,ENROUTE HIGH,SID"
ELMSZ,ELMSZ,Fix / reporting point / waypoint,,33.67683611,-79.29987777,US,SC,,FIX,2026-06-11,FAA-mined route text,https://www.faa.gov/air_traffic/flight_info/aeronav/Aero_Data/NASR_Subscription/2026-06-11/,"chartTypes=CONTROLLER HIGH,ENROUTE HIGH"
EMI,EMI,Navigation aid,WESTMINSTER,39.49500738,-76.97857197,US,MD,WESTMINSTER,NAV,2026-06-11,Original user route list,https://www.faa.gov/air_traffic/flight_info/aeronav/Aero_Data/NASR_Subscription/2026-06-11/,type=VORTAC; status=OPERATIONAL_RESTRICTED
EMMLY,EMMLY,Fix / reporting point / waypoint,,40.45,-87.33333333,US,IN,,FIX,2026-06-11,FAA-mined route text,https://www.faa.gov/air_traffic/flight_info/aeronav/Aero_Data/NASR_Subscription/2026-06-11/,"chartTypes=CONTROLLER HIGH,CONTROLLER LOW,ENROUTE HIGH,ENROUTE LOW,SID,STAR"
ENDEW,ENDEW,Fix / reporting point / waypoint,,28.30048055,-82.93241666,US,FL,,FIX,2026-06-11,FAA-mined route text,https://www.faa.gov/air_traffic/flight_info/aeronav/Aero_Data/NASR_Subscription/2026-06-11/,"chartTypes=CONTROLLER HIGH,ENROUTE HIGH,STAR"
ENEME,ENEME,Fix / reporting point / waypoint,,30.70335833,-82.43591944,US,GA,,FIX,2026-06-11,FAA-mined route text,https://www.faa.gov/air_traffic/flight_info/aeronav/Aero_Data/NASR_Subscription/2026-06-11/,"chartTypes=CONTROLLER HIGH,CONTROLLER LOW,ENROUTE HIGH,ENROUTE LOW,STAR"
ENI,ENI,Navigation aid,MENDOCINO,39.05321675,-123.27432666,US,CA,UKIAH,NAV,2026-06-11,Original user route list,https://www.faa.gov/air_traffic/flight_info/aeronav/Aero_Data/NASR_Subscription/2026-06-11/,type=VORTAC; status=OPERATIONAL_IFR
ENO,ENO,Navigation aid,SMYRNA,39.23164669,-75.51596994,US,DE,KENTON,NAV,2026-06-11,Original user route list,https://www.faa.gov/air_traffic/flight_info/aeronav/Aero_Data/NASR_Subscription/2026-06-11/,type=VORTAC; status=OPERATIONAL_RESTRICTED
ERECO,ERECO,Fix / reporting point / waypoint,,39.98638888,-87.11666666,US,IN,,FIX,2026-06-11,FAA-mined route text,https://www.faa.gov/air_traffic/flight_info/aeronav/Aero_Data/NASR_Subscription/2026-06-11/,"chartTypes=CONTROLLER HIGH,CONTROLLER LOW,ENROUTE HIGH,ENROUTE LOW,SID"
ETG,ETG,Navigation aid,KEATING,41.21494972,-78.14275638,US,PA,KEATING,NAV,2026-06-11,Original user route list + FAA-mined route text,https://www.faa.gov/air_traffic/flight_info/aeronav/Aero_Data/NASR_Subscription/2026-06-11/,type=VORTAC; status=OPERATIONAL_IFR
EUG,EUG,Airport / landing facility,MAHLON SWEET FLD,44.12458333,-123.21197222,US,OR,EUGENE,APT,2026-06-11,Original user route list,https://www.faa.gov/air_traffic/flight_info/aeronav/Aero_Data/NASR_Subscription/2026-06-11/,
EUG,EUG,Navigation aid,EUGENE,44.12089841,-123.22283125,US,OR,EUGENE,NAV,2026-06-11,Original user route list,https://www.faa.gov/air_traffic/flight_info/aeronav/Aero_Data/NASR_Subscription/2026-06-11/,type=VORTAC; status=OPERATIONAL_RESTRICTED
EWC,EWC,Navigation aid,ELLWOOD CITY,40.82493266,-80.21154555,US,PA,ELLWOOD CITY,NAV,2026-06-11,Original user route list,https://www.faa.gov/air_traffic/flight_info/aeronav/Aero_Data/NASR_Subscription/2026-06-11/,type=VOR/DME; status=OPERATIONAL_RESTRICTED
EWM,EWM,Navigation aid,NEWMAN,31.95178611,-106.27245833,US,TX,NEWMAN,NAV,2026-06-11,Original user route list,https://www.faa.gov/air_traffic/flight_info/aeronav/Aero_Data/NASR_Subscription/2026-06-11/,type=VORTAC; status=OPERATIONAL_RESTRICTED
EWR,EWR,Airport / landing facility,NEWARK LIBERTY INTL,40.69248055,-74.16868777,US,NJ,NEWARK,APT,2026-06-11,Original user route list,https://www.faa.gov/air_traffic/flight_info/aeronav/Aero_Data/NASR_Subscription/2026-06-11/,
EWR,EWR,Navigation aid,MARYANN,40.703384,-74.18742252,US,NJ,NEWARK,NAV,2026-06-11,Original user route list,https://www.faa.gov/air_traffic/flight_info/aeronav/Aero_Data/NASR_Subscription/2026-06-11/,type=FAN_MARKER; status=OPERATIONAL_IFR
FAK,FAK,Navigation aid,FLAT ROCK,37.52850944,-77.82821916,US,VA,FLAT ROCK,NAV,2026-06-11,Original user route list,https://www.faa.gov/air_traffic/flight_info/aeronav/Aero_Data/NASR_Subscription/2026-06-11/,type=VORTAC; status=OPERATIONAL_RESTRICTED
FAM,FAM,Airport / landing facility,FARMINGTON RGNL,37.76089222,-90.42866805,US,MO,FARMINGTON,APT,2026-06-11,FAA-mined route text,https://www.faa.gov/air_traffic/flight_info/aeronav/Aero_Data/NASR_Subscription/2026-06-11/,
FAM,FAM,Navigation aid,FARMINGTON,37.67346288,-90.23406127,US,MO,FARMINGTON,NAV,2026-06-11,FAA-mined route text,https://www.faa.gov/air_traffic/flight_info/aeronav/Aero_Data/NASR_Subscription/2026-06-11/,type=VORTAC; status=OPERATIONAL_RESTRICTED
FIM,FIM,Navigation aid,FILLMORE,34.35669361,-118.88129111,US,CA,FILLMORE,NAV,2026-06-11,Original user route list,https://www.faa.gov/air_traffic/flight_info/aeronav/Aero_Data/NASR_Subscription/2026-06-11/,type=VORTAC; status=OPERATIONAL_RESTRICTED
FISHO,FISHO,Fix / reporting point / waypoint,,33.27951388,-81.41208888,US,SC,,FIX,2026-06-11,FAA-mined route text,https://www.faa.gov/air_traffic/flight_info/aeronav/Aero_Data/NASR_Subscription/2026-06-11/,"chartTypes=CONTROLLER HIGH,ENROUTE HIGH"
FLL,FLL,Airport / landing facility,FORT LAUDERDALE/HOLLYWOOD INTL,26.07166666,-80.14969444,US,FL,FORT LAUDERDALE,APT,2026-06-11,Original user route list,https://www.faa.gov/air_traffic/flight_info/aeronav/Aero_Data/NASR_Subscription/2026-06-11/,
FLL,FLL,Navigation aid,FORT LAUDERDALE,26.07394338,-80.16644183,US,FL,FORT LAUDERDALE,NAV,2026-06-11,Original user route list,https://www.faa.gov/air_traffic/flight_info/aeronav/Aero_Data/NASR_Subscription/2026-06-11/,type=VOR/DME; status=OPERATIONAL_RESTRICTED
FORTL,FORTL,Fix / reporting point / waypoint,,26.30938055,-81.35235,US,FL,,FIX,2026-06-11,Original user route list,https://www.faa.gov/air_traffic/flight_info/aeronav/Aero_Data/NASR_Subscription/2026-06-11/,"chartTypes=CONTROLLER LOW,ENROUTE LOW,IAP,STAR"
FROGZ,FROGZ,Fix / reporting point / waypoint,,25.91317777,-81.037,US,FL,,FIX,2026-06-11,Original user route list,https://www.faa.gov/air_traffic/flight_info/aeronav/Aero_Data/NASR_Subscription/2026-06-11/,"chartTypes=CONTROLLER HIGH,CONTROLLER LOW,ENROUTE HIGH,ENROUTE LOW,STAR"
FTZ,FTZ,Navigation aid,FORISTELL,38.69433369,-90.97126933,US,MO,FORISTELL,NAV,2026-06-11,FAA-mined route text,https://www.faa.gov/air_traffic/flight_info/aeronav/Aero_Data/NASR_Subscription/2026-06-11/,type=VORTAC; status=OPERATIONAL_RESTRICTED
GAD,GAD,Airport / landing facility,NORTHEAST ALABAMA RGNL,33.97040527,-86.09128861,US,AL,GADSDEN,APT,2026-06-11,FAA-mined route text,https://www.faa.gov/air_traffic/flight_info/aeronav/Aero_Data/NASR_Subscription/2026-06-11/,
GAD,GAD,Navigation aid,GADSDEN,33.97640305,-86.08355694,US,AL,GADSDEN,NAV,2026-06-11,FAA-mined route text,https://www.faa.gov/air_traffic/flight_info/aeronav/Aero_Data/NASR_Subscription/2026-06-11/,type=VOR/DME; status=OPERATIONAL_RESTRICTED
GEARS,GEARS,Fix / reporting point / waypoint,,37.10200833,-77.39011944,US,VA,,FIX,2026-06-11,FAA-mined route text,https://www.faa.gov/air_traffic/flight_info/aeronav/Aero_Data/NASR_Subscription/2026-06-11/,"chartTypes=CONTROLLER HIGH,CONTROLLER LOW,ENROUTE HIGH"
GIBBS,GIBBS,Fix / reporting point / waypoint,,27.57423333,-82.28063055,US,FL,,FIX,2026-06-11,Original user route list,https://www.faa.gov/air_traffic/flight_info/aeronav/Aero_Data/NASR_Subscription/2026-06-11/,chartTypes=IAP
GOLDN,GOLDN,Fix / reporting point / waypoint,,42.30891388,-90.71190555,US,IA,,FIX,2026-06-11,Original user route list,https://www.faa.gov/air_traffic/flight_info/aeronav/Aero_Data/NASR_Subscription/2026-06-11/,chartTypes=IAP
GSO,GSO,Airport / landing facility,PIEDMONT TRIAD INTL,36.10132666,-79.94112277,US,NC,GREENSBORO,APT,2026-06-11,Original user route list + FAA-mined route text,https://www.faa.gov/air_traffic/flight_info/aeronav/Aero_Data/NASR_Subscription/2026-06-11/,
GSO,GSO,Navigation aid,GREENSBORO,36.045693,-79.976371,US,NC,GREENSBORO,NAV,2026-06-11,Original user route list + FAA-mined route text,https://www.faa.gov/air_traffic/flight_info/aeronav/Aero_Data/NASR_Subscription/2026-06-11/,type=VORTAC; status=OPERATIONAL_RESTRICTED
GUP,GUP,Airport / landing facility,GALLUP MUNI,35.51105833,-108.78930944,US,NM,GALLUP,APT,2026-06-11,Original user route list,https://www.faa.gov/air_traffic/flight_info/aeronav/Aero_Data/NASR_Subscription/2026-06-11/,
GUP,GUP,Navigation aid,GALLUP,35.47600072,-108.87261452,US,NM,GALLUP,NAV,2026-06-11,Original user route list,https://www.faa.gov/air_traffic/flight_info/aeronav/Aero_Data/NASR_Subscription/2026-06-11/,type=VORTAC; status=OPERATIONAL_RESTRICTED
GVE,GVE,Airport / landing facility,GORDONSVILLE MUNI,38.15598416,-78.16577972,US,VA,GORDONSVILLE,APT,2026-06-11,Original user route list + FAA-mined route text,https://www.faa.gov/air_traffic/flight_info/aeronav/Aero_Data/NASR_Subscription/2026-06-11/,
GVE,GVE,Navigation aid,GORDONSVILLE,38.01359938,-78.15302658,US,VA,GORDONSVILLE,NAV,2026-06-11,Original user route list + FAA-mined route text,https://www.faa.gov/air_traffic/flight_info/aeronav/Aero_Data/NASR_Subscription/2026-06-11/,type=VORTAC; status=OPERATIONAL_RESTRICTED
HAARP,HAARP,Fix / reporting point / waypoint,,41.11635277,-73.59348333,US,CT,,FIX,2026-06-11,Original user route list,https://www.faa.gov/air_traffic/flight_info/aeronav/Aero_Data/NASR_Subscription/2026-06-11/,"chartTypes=CONTROLLER LOW,ENROUTE LOW,IAP,STAR"
HANKO,HANKO,Fix / reporting point / waypoint,,33.83835555,-85.64853055,US,AL,,FIX,2026-06-11,FAA-mined route text,https://www.faa.gov/air_traffic/flight_info/aeronav/Aero_Data/NASR_Subscription/2026-06-11/,"chartTypes=CONTROLLER,ENROUTE HIGH,ENROUTE LOW,SID"
HAWKZ,HAWKZ,Fix / reporting point / waypoint,,46.78470277,-122.73896944,US,WA,,FIX,2026-06-11,Original user route list,https://www.faa.gov/air_traffic/flight_info/aeronav/Aero_Data/NASR_Subscription/2026-06-11/,"chartTypes=CONTROLLER LOW,ENROUTE LOW,STAR"
HAYDO,HAYDO,Fix / reporting point / waypoint,,39.20650277,-75.38061111,US,DE,,FIX,2026-06-11,FAA-mined route text,https://www.faa.gov/air_traffic/flight_info/aeronav/Aero_Data/NASR_Subscription/2026-06-11/,chartTypes=ENROUTE LOW
HBU,HBU,Navigation aid,BLUE MESA,38.45211641,-107.03971411,US,CO,GUNNISON,NAV,2026-06-11,Original user route list,https://www.faa.gov/air_traffic/flight_info/aeronav/Aero_Data/NASR_Subscription/2026-06-11/,type=VOR/DME; status=OPERATIONAL_RESTRICTED
HEC,HEC,Navigation aid,HECTOR,34.79701791,-116.46292202,US,CA,HECTOR,NAV,2026-06-11,Original user route list,https://www.faa.gov/air_traffic/flight_info/aeronav/Aero_Data/NASR_Subscription/2026-06-11/,type=VORTAC; status=OPERATIONAL_RESTRICTED
HITMN,HITMN,Fix / reporting point / waypoint,,36.13679722,-86.68479166,US,TN,,FIX,2026-06-11,FAA-mined route text,https://www.faa.gov/air_traffic/flight_info/aeronav/Aero_Data/NASR_Subscription/2026-06-11/,"chartTypes=CONTROLLER HIGH,CONTROLLER LOW,ENROUTE HIGH,ENROUTE LOW,SECTIONAL"
HNK,HNK,Navigation aid,HANCOCK,42.06305694,-75.31628444,US,NY,HANCOCK,NAV,2026-06-11,Original user route list,https://www.faa.gov/air_traffic/flight_info/aeronav/Aero_Data/NASR_Subscription/2026-06-11/,type=VOR/DME; status=OPERATIONAL_IFR
HUO,HUO,Navigation aid,HUGUENOT,41.40968661,-74.59159425,US,NY,HUGUENOT,NAV,2026-06-11,Original user route list,https://www.faa.gov/air_traffic/flight_info/aeronav/Aero_Data/NASR_Subscription/2026-06-11/,type=VOR/DME; status=OPERATIONAL_RESTRICTED
HURTS,HURTS,Fix / reporting point / waypoint,,37.46163055,-76.95493055,US,VA,,FIX,2026-06-11,FAA-mined route text,https://www.faa.gov/air_traffic/flight_info/aeronav/Aero_Data/NASR_Subscription/2026-06-11/,"chartTypes=CONTROLLER HIGH,CONTROLLER LOW,ENROUTE HIGH,STAR"
IAD,IAD,Airport / landing facility,WASHINGTON DULLES INTL,38.94745638,-77.45992861,US,DC,WASHINGTON,APT,2026-06-11,Original user route list,https://www.faa.gov/air_traffic/flight_info/aeronav/Aero_Data/NASR_Subscription/2026-06-11/,
IGARY,IGARY,Fix / reporting point / waypoint,,32.57815833,-80.37666944,US,SC,,FIX,2026-06-11,FAA-mined route text,https://www.faa.gov/air_traffic/flight_info/aeronav/Aero_Data/NASR_Subscription/2026-06-11/,"chartTypes=CONTROLLER HIGH,ENROUTE HIGH"
IIU,IIU,Navigation aid,LOUISVILLE,38.10346438,-85.57743658,US,KY,LOUISVILLE,NAV,2026-06-11,FAA-mined route text,https://www.faa.gov/air_traffic/flight_info/aeronav/Aero_Data/NASR_Subscription/2026-06-11/,type=VORTAC; status=OPERATIONAL_RESTRICTED
ILM,ILM,Airport / landing facility,WILMINGTON INTL,34.27115138,-77.90289055,US,NC,WILMINGTON,APT,2026-06-11,Original user route list,https://www.faa.gov/air_traffic/flight_info/aeronav/Aero_Data/NASR_Subscription/2026-06-11/,
ILM,ILM,Navigation aid,WILMINGTON,34.35164822,-77.87438038,US,NC,WILMINGTON,NAV,2026-06-11,Original user route list,https://www.faa.gov/air_traffic/flight_info/aeronav/Aero_Data/NASR_Subscription/2026-06-11/,type=VORTAC; status=OPERATIONAL_RESTRICTED
IOW,IOW,Airport / landing facility,IOWA CITY MUNI,41.63963222,-91.54788944,US,IA,IOWA CITY,APT,2026-06-11,Original user route list,https://www.faa.gov/air_traffic/flight_info/aeronav/Aero_Data/NASR_Subscription/2026-06-11/,
IOW,IOW,Navigation aid,IOWA CITY,41.51896019,-91.61325252,US,IA,IOWA CITY,NAV,2026-06-11,Original user route list,https://www.faa.gov/air_traffic/flight_info/aeronav/Aero_Data/NASR_Subscription/2026-06-11/,type=VOR/DME; status=OPERATIONAL_IFR
IRK,IRK,Airport / landing facility,KIRKSVILLE RGNL,40.09347222,-92.54491666,US,MO,KIRKSVILLE,APT,2026-06-11,Original user route list + FAA-mined route text,https://www.faa.gov/air_traffic/flight_info/aeronav/Aero_Data/NASR_Subscription/2026-06-11/,
IRK,IRK,Navigation aid,KIRKSVILLE,40.13501772,-92.59171463,US,MO,KIRKSVILLE,NAV,2026-06-11,Original user route list + FAA-mined route text,https://www.faa.gov/air_traffic/flight_info/aeronav/Aero_Data/NASR_Subscription/2026-06-11/,type=VORTAC; status=OPERATIONAL_IFR
IRNMN,IRNMN,Fix / reporting point / waypoint,,34.25571111,-118.89404722,US,CA,,FIX,2026-06-11,Original user route list,https://www.faa.gov/air_traffic/flight_info/aeronav/Aero_Data/NASR_Subscription/2026-06-11/,chartTypes=STAR
IRQ,IRQ,Navigation aid,COLLIERS,33.70735333,-82.16206444,US,SC,COLLIERS,NAV,2026-06-11,FAA-mined route text,https://www.faa.gov/air_traffic/flight_info/aeronav/Aero_Data/NASR_Subscription/2026-06-11/,type=VORTAC; status=OPERATIONAL_IFR
ISO,ISO,Airport / landing facility,KINSTON RGNL JETPORT AT STALLINGS FLD,35.33143277,-77.60883,US,NC,KINSTON,APT,2026-06-11,Original user route list,https://www.faa.gov/air_traffic/flight_info/aeronav/Aero_Data/NASR_Subscription/2026-06-11/,
ISO,ISO,Navigation aid,KINSTON,35.37094752,-77.55831522,US,NC,KINSTON,NAV,2026-06-11,Original user route list,https://www.faa.gov/air_traffic/flight_info/aeronav/Aero_Data/NASR_Subscription/2026-06-11/,type=VORTAC; status=OPERATIONAL_RESTRICTED
JAMIE,JAMIE,Fix / reporting point / waypoint,,37.60571666,-75.96355833,US,VA,,FIX,2026-06-11,FAA-mined route text,https://www.faa.gov/air_traffic/flight_info/aeronav/Aero_Data/NASR_Subscription/2026-06-11/,"chartTypes=CONTROLLER HIGH,CONTROLLER LOW,ENROUTE HIGH,ENROUTE LOW,SECTIONAL,SID,STAR"
JARLO,JARLO,Fix / reporting point / waypoint,,38.34968055,-81.76991111,US,WV,,FIX,2026-06-11,FAA-mined route text,https://www.faa.gov/air_traffic/flight_info/aeronav/Aero_Data/NASR_Subscription/2026-06-11/,"chartTypes=CONTROLLER LOW,ENROUTE LOW,SECTIONAL,STAR"
JEVED,JEVED,Fix / reporting point / waypoint,,31.25072222,-81.06115,US,GA,,FIX,2026-06-11,FAA-mined route text,https://www.faa.gov/air_traffic/flight_info/aeronav/Aero_Data/NASR_Subscription/2026-06-11/,"chartTypes=CONTROLLER HIGH,ENROUTE HIGH"
JFK,JFK,Airport / landing facility,JOHN F KENNEDY INTL,40.63992805,-73.77869222,US,NY,NEW YORK,APT,2026-06-11,Original user route list + FAA-mined route text,https://www.faa.gov/air_traffic/flight_info/aeronav/Aero_Data/NASR_Subscription/2026-06-11/,
JFK,JFK,Navigation aid,KENNEDY,40.63288377,-73.77139175,US,NY,NEW YORK,NAV,2026-06-11,Original user route list + FAA-mined route text,https://www.faa.gov/air_traffic/flight_info/aeronav/Aero_Data/NASR_Subscription/2026-06-11/,type=VOR/DME; status=OPERATIONAL_RESTRICTED
JFUND,JFUND,Fix / reporting point / waypoint,,42.58648333,-71.82109166,US,MA,,FIX,2026-06-11,Original user route list,https://www.faa.gov/air_traffic/flight_info/aeronav/Aero_Data/NASR_Subscription/2026-06-11/,chartTypes=STAR
JHW,JHW,Airport / landing facility,CHAUTAUQUA COUNTY/JAMESTOWN,42.15339444,-79.25802277,US,NY,JAMESTOWN,APT,2026-06-11,Original user route list + FAA-mined route text,https://www.faa.gov/air_traffic/flight_info/aeronav/Aero_Data/NASR_Subscription/2026-06-11/,
JHW,JHW,Navigation aid,JAMESTOWN,42.18860694,-79.12130763,US,NY,JAMESTOWN,NAV,2026-06-11,Original user route list + FAA-mined route text,https://www.faa.gov/air_traffic/flight_info/aeronav/Aero_Data/NASR_Subscription/2026-06-11/,type=VOR/DME; status=OPERATIONAL_RESTRICTED
JLI,JLI,Navigation aid,JULIAN,33.14045861,-116.58593472,US,CA,JULIAN,NAV,2026-06-11,Original user route list,https://www.faa.gov/air_traffic/flight_info/aeronav/Aero_Data/NASR_Subscription/2026-06-11/,type=VORTAC; status=OPERATIONAL_RESTRICTED
JOHAR,JOHAR,Fix / reporting point / waypoint,,34.32815277,-78.59365555,US,NC,,FIX,2026-06-11,FAA-mined route text,https://www.faa.gov/air_traffic/flight_info/aeronav/Aero_Data/NASR_Subscription/2026-06-11/,"chartTypes=CONTROLLER HIGH,CONTROLLER LOW,ENROUTE HIGH,SID"
JROSS,JROSS,Fix / reporting point / waypoint,,32.71111111,-80.62722222,US,SC,,FIX,2026-06-11,FAA-mined route text,https://www.faa.gov/air_traffic/flight_info/aeronav/Aero_Data/NASR_Subscription/2026-06-11/,"chartTypes=CONTROLLER HIGH,ENROUTE HIGH"
JST,JST,Airport / landing facility,JOHN MURTHA JOHNSTOWN/CAMBRIA COUNTY,40.31555555,-78.83466666,US,PA,JOHNSTOWN,APT,2026-06-11,FAA-mined route text,https://www.faa.gov/air_traffic/flight_info/aeronav/Aero_Data/NASR_Subscription/2026-06-11/,
JST,JST,Navigation aid,JOHNSTOWN,40.31672561,-78.8341665,US,PA,JOHNSTOWN,NAV,2026-06-11,FAA-mined route text,https://www.faa.gov/air_traffic/flight_info/aeronav/Aero_Data/NASR_Subscription/2026-06-11/,type=VOR/DME; status=OPERATIONAL_RESTRICTED
JZI,JZI,Airport / landing facility,CHARLESTON EXEC,32.70102777,-80.00325,US,SC,CHARLESTON,APT,2026-06-11,Original user route list,https://www.faa.gov/air_traffic/flight_info/aeronav/Aero_Data/NASR_Subscription/2026-06-11/,
KAYYS,KAYYS,Fix / reporting point / waypoint,,42.88443333,-84.58066666,US,MI,,FIX,2026-06-11,FAA-mined route text,https://www.faa.gov/air_traffic/flight_info/aeronav/Aero_Data/NASR_Subscription/2026-06-11/,"chartTypes=CONTROLLER HIGH,ENROUTE HIGH,STAR"
KBNA,BNA,Airport / landing facility,NASHVILLE INTL,36.124475,-86.67818055,US,TN,NASHVILLE,APT,2026-06-11,FAA-mined route text,https://www.faa.gov/air_traffic/flight_info/aeronav/Aero_Data/NASR_Subscription/2026-06-11/,Airport alias match for KBNA -> BNA
KBNA,BNA,Airport / landing facility,NASHVILLE INTL,36.124475,-86.67818055,US,TN,NASHVILLE,APT,2026-06-11,FAA-mined route text,https://www.faa.gov/air_traffic/flight_info/aeronav/Aero_Data/NASR_Subscription/2026-06-11/,Airport alias match for KBNA -> BNA
KBOS,BOS,Airport / landing facility,GENERAL EDWARD LAWRENCE LOGAN INTL,42.36294444,-71.00638888,US,MA,BOSTON,APT,2026-06-11,FAA-mined route text,https://www.faa.gov/air_traffic/flight_info/aeronav/Aero_Data/NASR_Subscription/2026-06-11/,Airport alias match for KBOS -> BOS
KBOS,BOS,Airport / landing facility,GENERAL EDWARD LAWRENCE LOGAN INTL,42.36294444,-71.00638888,US,MA,BOSTON,APT,2026-06-11,FAA-mined route text,https://www.faa.gov/air_traffic/flight_info/aeronav/Aero_Data/NASR_Subscription/2026-06-11/,Airport alias match for KBOS -> BOS
KBWI,BWI,Airport / landing facility,BALTIMORE/WASHINGTON INTL THURGOOD MARSHALL,39.17572833,-76.66899111,US,MD,BALTIMORE,APT,2026-06-11,FAA-mined route text,https://www.faa.gov/air_traffic/flight_info/aeronav/Aero_Data/NASR_Subscription/2026-06-11/,Airport alias match for KBWI -> BWI
KBWI,BWI,Airport / landing facility,BALTIMORE/WASHINGTON INTL THURGOOD MARSHALL,39.17572833,-76.66899111,US,MD,BALTIMORE,APT,2026-06-11,FAA-mined route text,https://www.faa.gov/air_traffic/flight_info/aeronav/Aero_Data/NASR_Subscription/2026-06-11/,Airport alias match for KBWI -> BWI
KDCA,DCA,Airport / landing facility,RONALD REAGAN WASHINGTON NTL,38.85144027,-77.03772138,US,DC,WASHINGTON,APT,2026-06-11,FAA-mined route text,https://www.faa.gov/air_traffic/flight_info/aeronav/Aero_Data/NASR_Subscription/2026-06-11/,Airport alias match for KDCA -> DCA
KDCA,DCA,Airport / landing facility,RONALD REAGAN WASHINGTON NTL,38.85144027,-77.03772138,US,DC,WASHINGTON,APT,2026-06-11,FAA-mined route text,https://www.faa.gov/air_traffic/flight_info/aeronav/Aero_Data/NASR_Subscription/2026-06-11/,Airport alias match for KDCA -> DCA
KENLL,KENLL,Fix / reporting point / waypoint,,29.57454166,-81.12368333,US,FL,,FIX,2026-06-11,FAA-mined route text,https://www.faa.gov/air_traffic/flight_info/aeronav/Aero_Data/NASR_Subscription/2026-06-11/,"chartTypes=CONTROLLER HIGH,CONTROLLER LOW,ENROUTE HIGH,ENROUTE LOW,STAR"
KIAD,IAD,Airport / landing facility,WASHINGTON DULLES INTL,38.94745638,-77.45992861,US,DC,WASHINGTON,APT,2026-06-11,FAA-mined route text,https://www.faa.gov/air_traffic/flight_info/aeronav/Aero_Data/NASR_Subscription/2026-06-11/,Airport alias match for KIAD -> IAD
KIAD,IAD,Airport / landing facility,WASHINGTON DULLES INTL,38.94745638,-77.45992861,US,DC,WASHINGTON,APT,2026-06-11,FAA-mined route text,https://www.faa.gov/air_traffic/flight_info/aeronav/Aero_Data/NASR_Subscription/2026-06-11/,Airport alias match for KIAD -> IAD
KJFK,JFK,Airport / landing facility,JOHN F KENNEDY INTL,40.63992805,-73.77869222,US,NY,NEW YORK,APT,2026-06-11,FAA-mined route text,https://www.faa.gov/air_traffic/flight_info/aeronav/Aero_Data/NASR_Subscription/2026-06-11/,Airport alias match for KJFK -> JFK
KJFK,JFK,Airport / landing facility,JOHN F KENNEDY INTL,40.63992805,-73.77869222,US,NY,NEW YORK,APT,2026-06-11,FAA-mined route text,https://www.faa.gov/air_traffic/flight_info/aeronav/Aero_Data/NASR_Subscription/2026-06-11/,Airport alias match for KJFK -> JFK
KLGA,LGA,Airport / landing facility,LAGUARDIA,40.77724222,-73.87260555,US,NY,NEW YORK,APT,2026-06-11,FAA-mined route text,https://www.faa.gov/air_traffic/flight_info/aeronav/Aero_Data/NASR_Subscription/2026-06-11/,Airport alias match for KLGA -> LGA
KLGA,LGA,Airport / landing facility,LAGUARDIA,40.77724222,-73.87260555,US,NY,NEW YORK,APT,2026-06-11,FAA-mined route text,https://www.faa.gov/air_traffic/flight_info/aeronav/Aero_Data/NASR_Subscription/2026-06-11/,Airport alias match for KLGA -> LGA
KORD,ORD,Airport / landing facility,CHICAGO O'HARE INTL,41.97694027,-87.90814972,US,IL,CHICAGO,APT,2026-06-11,FAA-mined route text,https://www.faa.gov/air_traffic/flight_info/aeronav/Aero_Data/NASR_Subscription/2026-06-11/,Airport alias match for KORD -> ORD
KORD,ORD,Airport / landing facility,CHICAGO O'HARE INTL,41.97694027,-87.90814972,US,IL,CHICAGO,APT,2026-06-11,FAA-mined route text,https://www.faa.gov/air_traffic/flight_info/aeronav/Aero_Data/NASR_Subscription/2026-06-11/,Airport alias match for KORD -> ORD
LANDR,LANDR,Fix / reporting point / waypoint,,40.35757222,-104.00296388,US,CO,,FIX,2026-06-11,Original user route list,https://www.faa.gov/air_traffic/flight_info/aeronav/Aero_Data/NASR_Subscription/2026-06-11/,"chartTypes=CONTROLLER HIGH,ENROUTE HIGH,STAR"
LANNA,LANNA,Fix / reporting point / waypoint,,40.55974166,-75.027725,US,NJ,,FIX,2026-06-11,Original user route list,https://www.faa.gov/air_traffic/flight_info/aeronav/Aero_Data/NASR_Subscription/2026-06-11/,"chartTypes=CONTROLLER HIGH,CONTROLLER LOW,ENROUTE HIGH,ENROUTE LOW,SECTIONAL,SID"
LAS,LAS,Airport / landing facility,HARRY REID INTL,36.08034277,-115.15244861,US,NV,LAS VEGAS,APT,2026-06-11,Original user route list,https://www.faa.gov/air_traffic/flight_info/aeronav/Aero_Data/NASR_Subscription/2026-06-11/,
LAS,LAS,Navigation aid,LAS VEGAS,36.07970147,-115.15979791,US,NV,LAS VEGAS,NAV,2026-06-11,Original user route list,https://www.faa.gov/air_traffic/flight_info/aeronav/Aero_Data/NASR_Subscription/2026-06-11/,type=VORTAC; status=OPERATIONAL_RESTRICTED
LAX,LAX,Airport / landing facility,LOS ANGELES INTL,33.94249638,-118.40804861,US,CA,LOS ANGELES,APT,2026-06-11,Original user route list,https://www.faa.gov/air_traffic/flight_info/aeronav/Aero_Data/NASR_Subscription/2026-06-11/,
LAX,LAX,Navigation aid,LOS ANGELES,33.93314911,-118.43201277,US,CA,LOS ANGELES,NAV,2026-06-11,Original user route list,https://www.faa.gov/air_traffic/flight_info/aeronav/Aero_Data/NASR_Subscription/2026-06-11/,type=VORTAC; status=OPERATIONAL_RESTRICTED
LAX,LAX,Navigation aid,SAN PEDRO HILL,33.74585083,-118.33618305,US,CA,LOS ANGELES,NAV,2026-06-11,Original user route list,https://www.faa.gov/air_traffic/flight_info/aeronav/Aero_Data/NASR_Subscription/2026-06-11/,type=VOT; status=OPERATIONAL_IFR
LBF,LBF,Airport / landing facility,NORTH PLATTE RGNL/LEE BIRD FLD,41.12621277,-100.68365305,US,NE,NORTH PLATTE,APT,2026-06-11,Original user route list,https://www.faa.gov/air_traffic/flight_info/aeronav/Aero_Data/NASR_Subscription/2026-06-11/,
LBF,LBF,Navigation aid,NORTH PLATTE,41.04870452,-100.74709763,US,NE,NORTH PLATTE,NAV,2026-06-11,Original user route list,https://www.faa.gov/air_traffic/flight_info/aeronav/Aero_Data/NASR_Subscription/2026-06-11/,type=VOR/DME; status=OPERATIONAL_IFR
LDN,LDN,Navigation aid,LINDEN,38.85439844,-78.20557108,US,VA,LINDEN,NAV,2026-06-11,Original user route list,https://www.faa.gov/air_traffic/flight_info/aeronav/Aero_Data/NASR_Subscription/2026-06-11/,type=VORTAC; status=OPERATIONAL_IFR
LGA,LGA,Airport / landing facility,LAGUARDIA,40.77724222,-73.87260555,US,NY,NEW YORK,APT,2026-06-11,Original user route list,https://www.faa.gov/air_traffic/flight_info/aeronav/Aero_Data/NASR_Subscription/2026-06-11/,
LGA,LGA,Navigation aid,LA GUARDIA,40.78371475,-73.86859913,US,NY,NEW YORK,NAV,2026-06-11,Original user route list,https://www.faa.gov/air_traffic/flight_info/aeronav/Aero_Data/NASR_Subscription/2026-06-11/,type=VOR/DME; status=OPERATIONAL_RESTRICTED
LMT,LMT,Airport / landing facility,CRATER LAKE/KLAMATH RGNL,42.15614305,-121.733365,US,OR,KLAMATH FALLS,APT,2026-06-11,Original user route list,https://www.faa.gov/air_traffic/flight_info/aeronav/Aero_Data/NASR_Subscription/2026-06-11/,
LMT,LMT,Navigation aid,KLAMATH FALLS,42.15314158,-121.72752827,US,OR,KLAMATH FALLS,NAV,2026-06-11,Original user route list,https://www.faa.gov/air_traffic/flight_info/aeronav/Aero_Data/NASR_Subscription/2026-06-11/,type=VORTAC; status=OPERATIONAL_RESTRICTED
LNK,LNK,Airport / landing facility,LINCOLN,40.85089138,-96.75912111,US,NE,LINCOLN,APT,2026-06-11,Original user route list,https://www.faa.gov/air_traffic/flight_info/aeronav/Aero_Data/NASR_Subscription/2026-06-11/,
LNK,LNK,Navigation aid,LINCOLN,40.92379347,-96.7420095,US,NE,LINCOLN,NAV,2026-06-11,Original user route list,https://www.faa.gov/air_traffic/flight_info/aeronav/Aero_Data/NASR_Subscription/2026-06-11/,type=VORTAC; status=OPERATIONAL_IFR
LOOSE,LOOSE,Fix / reporting point / waypoint,,33.89635555,-93.08566111,US,AR,,FIX,2026-06-11,FAA-mined route text,https://www.faa.gov/air_traffic/flight_info/aeronav/Aero_Data/NASR_Subscription/2026-06-11/,"chartTypes=CONTROLLER HIGH,CONTROLLER LOW,ENROUTE HIGH,SID"
LPERD,LPERD,Fix / reporting point / waypoint,,30.60255,-81.28115555,US,FL,,FIX,2026-06-11,FAA-mined route text,https://www.faa.gov/air_traffic/flight_info/aeronav/Aero_Data/NASR_Subscription/2026-06-11/,"chartTypes=CONTROLLER HIGH,CONTROLLER LOW,ENROUTE HIGH,ENROUTE LOW,STAR"
LRP,LRP,Navigation aid,LANCASTER,40.11997552,-76.29129536,US,PA,LANCASTER,NAV,2026-06-11,Original user route list,https://www.faa.gov/air_traffic/flight_info/aeronav/Aero_Data/NASR_Subscription/2026-06-11/,type=VOR/DME; status=OPERATIONAL_RESTRICTED
MAD,MAD,Navigation aid,MADISON,41.31386111,-72.69220277,US,CT,MADISON,NAV,2026-06-11,Original user route list,https://www.faa.gov/air_traffic/flight_info/aeronav/Aero_Data/NASR_Subscription/2026-06-11/,type=VOR/DME; status=OPERATIONAL_IFR
MAGOO,MAGOO,Fix / reporting point / waypoint,,40.024925,-90.76183333,US,IL,,FIX,2026-06-11,Original user route list,https://www.faa.gov/air_traffic/flight_info/aeronav/Aero_Data/NASR_Subscription/2026-06-11/,"chartTypes=CONTROLLER HIGH,ENROUTE HIGH,STAR"
MCI,MCI,Airport / landing facility,KANSAS CITY INTL,39.29761111,-94.71388888,US,MO,KANSAS CITY,APT,2026-06-11,FAA-mined route text,https://www.faa.gov/air_traffic/flight_info/aeronav/Aero_Data/NASR_Subscription/2026-06-11/,
MCI,MCI,Navigation aid,KANSAS CITY,39.28528333,-94.73706111,US,MO,KANSAS CITY,NAV,2026-06-11,FAA-mined route text,https://www.faa.gov/air_traffic/flight_info/aeronav/Aero_Data/NASR_Subscription/2026-06-11/,type=VORTAC; status=OPERATIONAL_IFR
MCO,MCO,Airport / landing facility,ORLANDO INTL,28.42938888,-81.309,US,FL,ORLANDO,APT,2026-06-11,Original user route list,https://www.faa.gov/air_traffic/flight_info/aeronav/Aero_Data/NASR_Subscription/2026-06-11/,
MCRAY,MCRAY,Fix / reporting point / waypoint,,39.53824722,-77.860575,US,MD,,FIX,2026-06-11,FAA-mined route text,https://www.faa.gov/air_traffic/flight_info/aeronav/Aero_Data/NASR_Subscription/2026-06-11/,"chartTypes=CONTROLLER HIGH,ENROUTE HIGH,MILITARY SID,SID"
MEMFS,MEMFS,Fix / reporting point / waypoint,,35.01517222,-89.98301944,US,TN,,FIX,2026-06-11,FAA-mined route text,https://www.faa.gov/air_traffic/flight_info/aeronav/Aero_Data/NASR_Subscription/2026-06-11/,"chartTypes=CONTROLLER HIGH,CONTROLLER LOW,ENROUTE HIGH,STAR"
MIA,MIA,Airport / landing facility,MIAMI INTL,25.79536111,-80.29011583,US,FL,MIAMI,APT,2026-06-11,Original user route list,https://www.faa.gov/air_traffic/flight_info/aeronav/Aero_Data/NASR_Subscription/2026-06-11/,
MIP,MIP,Navigation aid,MILTON,41.02339191,-76.66528994,US,PA,MILTON,NAV,2026-06-11,Original user route list,https://www.faa.gov/air_traffic/flight_info/aeronav/Aero_Data/NASR_Subscription/2026-06-11/,type=VORTAC; status=OPERATIONAL_IFR
MISEN,MISEN,Fix / reporting point / waypoint,,35.10235,-116.40385,US,CA,,FIX,2026-06-11,Original user route list,https://www.faa.gov/air_traffic/flight_info/aeronav/Aero_Data/NASR_Subscription/2026-06-11/,"chartTypes=CONTROLLER HIGH,ENROUTE HIGH,SID,STAR"
MLC,MLC,Airport / landing facility,MC ALESTER RGNL,34.88238888,-95.78347222,US,OK,MC ALESTER,APT,2026-06-11,Original user route list,https://www.faa.gov/air_traffic/flight_info/aeronav/Aero_Data/NASR_Subscription/2026-06-11/,
MLC,MLC,Navigation aid,MC ALESTER,34.84944091,-95.78234422,US,OK,MC ALESTER,NAV,2026-06-11,Original user route list,https://www.faa.gov/air_traffic/flight_info/aeronav/Aero_Data/NASR_Subscription/2026-06-11/,type=TACAN; status=OPERATIONAL_IFR
MOSTE,MOSTE,Fix / reporting point / waypoint,,28.21268333,-80.61656944,US,FL,,FIX,2026-06-11,Original user route list,https://www.faa.gov/air_traffic/flight_info/aeronav/Aero_Data/NASR_Subscription/2026-06-11/,chartTypes=MILITARY IAP
MSP,MSP,Airport / landing facility,MINNEAPOLIS-ST PAUL INTL/WOLD-CHAMBERLAIN,44.88197222,-93.22177777,US,MN,MINNEAPOLIS,APT,2026-06-11,Original user route list,https://www.faa.gov/air_traffic/flight_info/aeronav/Aero_Data/NASR_Subscription/2026-06-11/,
MSP,MSP,Navigation aid,MINNEAPOLIS,44.89649883,-93.23653158,US,MN,MINNEAPOLIS,NAV,2026-06-11,Original user route list,https://www.faa.gov/air_traffic/flight_info/aeronav/Aero_Data/NASR_Subscription/2026-06-11/,type=VOR/DME; status=OPERATIONAL_RESTRICTED
MSP,MSP,Navigation aid,MINNEAPOLIS ST PAUL,44.89027777,-93.22944444,US,MN,MINNEAPOLIS,NAV,2026-06-11,Original user route list,https://www.faa.gov/air_traffic/flight_info/aeronav/Aero_Data/NASR_Subscription/2026-06-11/,type=VOT; status=OPERATIONAL_RESTRICTED
MVA,MVA,Navigation aid,MINA,38.56529944,-118.03285333,US,NV,MINA,NAV,2026-06-11,Original user route list,https://www.faa.gov/air_traffic/flight_info/aeronav/Aero_Data/NASR_Subscription/2026-06-11/,type=VORTAC; status=OPERATIONAL_RESTRICTED
MXE,MXE,Navigation aid,MODENA,39.91805002,-75.6708215,US,PA,MODENA,NAV,2026-06-11,Original user route list,https://www.faa.gov/air_traffic/flight_info/aeronav/Aero_Data/NASR_Subscription/2026-06-11/,type=VORTAC; status=OPERATIONAL_RESTRICTED
MZV,MZV,Navigation aid,MOLINE,41.32092102,-90.63821433,US,IL,MOLINE,NAV,2026-06-11,Original user route list,https://www.faa.gov/air_traffic/flight_info/aeronav/Aero_Data/NASR_Subscription/2026-06-11/,type=VOR/DME; status=OPERATIONAL_IFR
OAL,OAL,Navigation aid,COALDALE,38.00326138,-117.77044583,US,NV,COALDALE,NAV,2026-06-11,Original user route list,https://www.faa.gov/air_traffic/flight_info/aeronav/Aero_Data/NASR_Subscription/2026-06-11/,type=VORTAC; status=OPERATIONAL_RESTRICTED
OBK,OBK,Navigation aid,NORTHBROOK,42.22137652,-87.95167038,US,IL,NORTHBROOK,NAV,2026-06-11,Original user route list,https://www.faa.gov/air_traffic/flight_info/aeronav/Aero_Data/NASR_Subscription/2026-06-11/,type=VOR/DME; status=OPERATIONAL_RESTRICTED
ODI,ODI,Navigation aid,NODINE,43.91232916,-91.46751616,US,MN,NODINE,NAV,2026-06-11,Original user route list,https://www.faa.gov/air_traffic/flight_info/aeronav/Aero_Data/NASR_Subscription/2026-06-11/,type=VORTAC; status=OPERATIONAL_IFR
OED,OED,Navigation aid,ROGUE VALLEY,42.47957422,-122.91293355,US,OR,MEDFORD,NAV,2026-06-11,Original user route list,https://www.faa.gov/air_traffic/flight_info/aeronav/Aero_Data/NASR_Subscription/2026-06-11/,type=VORTAC; status=OPERATIONAL_RESTRICTED
OGRAE,OGRAE,Fix / reporting point / waypoint,,35.74566944,-79.185475,US,NC,,FIX,2026-06-11,FAA-mined route text,https://www.faa.gov/air_traffic/flight_info/aeronav/Aero_Data/NASR_Subscription/2026-06-11/,"chartTypes=CONTROLLER HIGH,CONTROLLER LOW,ENROUTE HIGH"
OMA,OMA,Airport / landing facility,EPPLEY AIRFIELD,41.30316666,-95.89405555,US,NE,OMAHA,APT,2026-06-11,Original user route list,https://www.faa.gov/air_traffic/flight_info/aeronav/Aero_Data/NASR_Subscription/2026-06-11/,
OMA,OMA,Navigation aid,OMAHA,41.29550555,-95.88688888,US,NE,OMAHA,NAV,2026-06-11,Original user route list,https://www.faa.gov/air_traffic/flight_info/aeronav/Aero_Data/NASR_Subscription/2026-06-11/,type=VOT; status=OPERATIONAL_IFR
OMN,OMN,Airport / landing facility,ORMOND BEACH MUNI,29.30114,-81.11379972,US,FL,ORMOND BEACH,APT,2026-06-11,Original user route list,https://www.faa.gov/air_traffic/flight_info/aeronav/Aero_Data/NASR_Subscription/2026-06-11/,
OMN,OMN,Navigation aid,ORMOND BEACH,29.30325055,-81.11269825,US,FL,ORMOND BEACH,NAV,2026-06-11,Original user route list,https://www.faa.gov/air_traffic/flight_info/aeronav/Aero_Data/NASR_Subscription/2026-06-11/,type=VORTAC; status=OPERATIONAL_RESTRICTED
OOD,OOD,Navigation aid,WOODSTOWN,39.63607752,-75.30305627,US,NJ,WOODSTOWN,NAV,2026-06-11,FAA-mined route text,https://www.faa.gov/air_traffic/flight_info/aeronav/Aero_Data/NASR_Subscription/2026-06-11/,type=VORTAC; status=OPERATIONAL_RESTRICTED
ORD,ORD,Airport / landing facility,CHICAGO O'HARE INTL,41.97694027,-87.90814972,US,IL,CHICAGO,APT,2026-06-11,Original user route list,https://www.faa.gov/air_traffic/flight_info/aeronav/Aero_Data/NASR_Subscription/2026-06-11/,
ORW,ORW,Navigation aid,NORWICH,41.55640372,-71.9993533,US,CT,NORWICH,NAV,2026-06-11,Original user route list,https://www.faa.gov/air_traffic/flight_info/aeronav/Aero_Data/NASR_Subscription/2026-06-11/,type=VOR/DME; status=OPERATIONAL_IFR
OTK,OTK,Navigation aid,VALDOSTA,30.78044602,-83.27972694,US,GA,VALDOSTA,NAV,2026-06-11,Original user route list,https://www.faa.gov/air_traffic/flight_info/aeronav/Aero_Data/NASR_Subscription/2026-06-11/,type=VOR/DME; status=OPERATIONAL_RESTRICTED
OXI,OXI,Airport / landing facility,STARKE COUNTY,41.32970194,-86.66460944,US,IN,KNOX,APT,2026-06-11,Original user route list,https://www.faa.gov/air_traffic/flight_info/aeronav/Aero_Data/NASR_Subscription/2026-06-11/,
OXI,OXI,Navigation aid,KNOX,41.32205877,-86.64928852,US,IN,KNOX,NAV,2026-06-11,Original user route list,https://www.faa.gov/air_traffic/flight_info/aeronav/Aero_Data/NASR_Subscription/2026-06-11/,type=DME; status=OPERATIONAL_IFR
PAACK,PAACK,Fix / reporting point / waypoint,,35.92785,-77.25860833,US,NC,,FIX,2026-06-11,FAA-mined route text,https://www.faa.gov/air_traffic/flight_info/aeronav/Aero_Data/NASR_Subscription/2026-06-11/,"chartTypes=CONTROLLER HIGH,CONTROLLER LOW,ENROUTE HIGH"
PANDY,PANDY,Fix / reporting point / waypoint,,33.47483055,-80.44866944,US,SC,,FIX,2026-06-11,FAA-mined route text,https://www.faa.gov/air_traffic/flight_info/aeronav/Aero_Data/NASR_Subscription/2026-06-11/,"chartTypes=CONTROLLER HIGH,ENROUTE HIGH"
PBI,PBI,Airport / landing facility,PALM BEACH INTL,26.68316166,-80.09559194,US,FL,WEST PALM BEACH,APT,2026-06-11,Original user route list,https://www.faa.gov/air_traffic/flight_info/aeronav/Aero_Data/NASR_Subscription/2026-06-11/,
PBI,PBI,Navigation aid,PALM BEACH,26.680055,-80.08648986,US,FL,WEST PALM BEACH,NAV,2026-06-11,Original user route list,https://www.faa.gov/air_traffic/flight_info/aeronav/Aero_Data/NASR_Subscription/2026-06-11/,type=VORTAC; status=OPERATIONAL_RESTRICTED
PEETT,PEETT,Fix / reporting point / waypoint,,36.44581388,-78.57115833,US,NC,,FIX,2026-06-11,FAA-mined route text,https://www.faa.gov/air_traffic/flight_info/aeronav/Aero_Data/NASR_Subscription/2026-06-11/,"chartTypes=CONTROLLER HIGH,CONTROLLER LOW,ENROUTE HIGH"
PHL,PHL,Airport / landing facility,PHILADELPHIA INTL,39.87208388,-75.24066305,US,PA,PHILADELPHIA,APT,2026-06-11,Original user route list,https://www.faa.gov/air_traffic/flight_info/aeronav/Aero_Data/NASR_Subscription/2026-06-11/,
PHL,PHL,Navigation aid,PHILADELPHIA,39.86528055,-75.23365,US,PA,PHILADELPHIA,NAV,2026-06-11,Original user route list,https://www.faa.gov/air_traffic/flight_info/aeronav/Aero_Data/NASR_Subscription/2026-06-11/,type=VOT; status=OPERATIONAL_RESTRICTED
PHX,PHX,Airport / landing facility,PHOENIX SKY HARBOR INTL,33.43427777,-112.01158333,US,AZ,PHOENIX,APT,2026-06-11,Original user route list,https://www.faa.gov/air_traffic/flight_info/aeronav/Aero_Data/NASR_Subscription/2026-06-11/,
PHX,PHX,Navigation aid,PHOENIX,33.43535494,-112.00791383,US,AZ,PHOENIX,NAV,2026-06-11,Original user route list,https://www.faa.gov/air_traffic/flight_info/aeronav/Aero_Data/NASR_Subscription/2026-06-11/,type=VOT; status=OPERATIONAL_IFR
PINNS,PINNS,Fix / reporting point / waypoint,,41.24522222,-73.950825,US,NY,,FIX,2026-06-11,Original user route list,https://www.faa.gov/air_traffic/flight_info/aeronav/Aero_Data/NASR_Subscription/2026-06-11/,"chartTypes=AREA,CONTROLLER,ENROUTE LOW"
POLYY,POLYY,Fix / reporting point / waypoint,,34.81042777,-79.99883611,US,NC,,FIX,2026-06-11,FAA-mined route text,https://www.faa.gov/air_traffic/flight_info/aeronav/Aero_Data/NASR_Subscription/2026-06-11/,"chartTypes=CONTROLLER HIGH,CONTROLLER LOW,ENROUTE HIGH"
PONCT,PONCT,Fix / reporting point / waypoint,,42.74689722,-73.81335277,US,NY,,FIX,2026-06-11,FAA-mined route text,https://www.faa.gov/air_traffic/flight_info/aeronav/Aero_Data/NASR_Subscription/2026-06-11/,"chartTypes=CONTROLLER HIGH,CONTROLLER LOW,ENROUTE HIGH,ENROUTE LOW,STAR"
PRMUS,PRMUS,Fix / reporting point / waypoint,,29.81824166,-81.12242777,US,FL,,FIX,2026-06-11,FAA-mined route text,https://www.faa.gov/air_traffic/flight_info/aeronav/Aero_Data/NASR_Subscription/2026-06-11/,"chartTypes=CONTROLLER HIGH,CONTROLLER LOW,ENROUTE HIGH,ENROUTE LOW,STAR"
PSP,PSP,Airport / landing facility,PALM SPRINGS INTL,33.82966972,-116.50669416,US,CA,PALM SPRINGS,APT,2026-06-11,Original user route list,https://www.faa.gov/air_traffic/flight_info/aeronav/Aero_Data/NASR_Subscription/2026-06-11/,
PSP,PSP,Navigation aid,PALM SPRINGS,33.87001358,-116.42977258,US,CA,PALM SPRINGS,NAV,2026-06-11,Original user route list,https://www.faa.gov/air_traffic/flight_info/aeronav/Aero_Data/NASR_Subscription/2026-06-11/,type=VORTAC; status=OPERATIONAL_RESTRICTED
PUPYY,PUPYY,Fix / reporting point / waypoint,,31.40988333,-81.81838611,US,GA,,FIX,2026-06-11,FAA-mined route text,https://www.faa.gov/air_traffic/flight_info/aeronav/Aero_Data/NASR_Subscription/2026-06-11/,"chartTypes=CONTROLLER HIGH,ENROUTE HIGH"
PVD,PVD,Airport / landing facility,RHODE ISLAND TF GREEN INTL,41.72233333,-71.42772222,US,RI,PROVIDENCE,APT,2026-06-11,Original user route list,https://www.faa.gov/air_traffic/flight_info/aeronav/Aero_Data/NASR_Subscription/2026-06-11/,
PVD,PVD,Navigation aid,PROVIDENCE,41.72434394,-71.42963861,US,RI,PROVIDENCE,NAV,2026-06-11,Original user route list,https://www.faa.gov/air_traffic/flight_info/aeronav/Aero_Data/NASR_Subscription/2026-06-11/,type=VOR/DME; status=OPERATIONAL_RESTRICTED
PVD,PVD,Navigation aid,PROVIDENCE,41.72361111,-71.42666666,US,RI,PROVIDENCE,NAV,2026-06-11,Original user route list,https://www.faa.gov/air_traffic/flight_info/aeronav/Aero_Data/NASR_Subscription/2026-06-11/,type=VOT; status=OPERATIONAL_IFR
PXR,PXR,Navigation aid,PHOENIX,33.43301725,-111.97020183,US,AZ,PHOENIX,NAV,2026-06-11,Original user route list,https://www.faa.gov/air_traffic/flight_info/aeronav/Aero_Data/NASR_Subscription/2026-06-11/,type=VORTAC; status=OPERATIONAL_RESTRICTED
PXV,PXV,Navigation aid,POCKET CITY,37.92831983,-87.76237986,US,IN,EVANSVILLE,NAV,2026-06-11,Original user route list,https://www.faa.gov/air_traffic/flight_info/aeronav/Aero_Data/NASR_Subscription/2026-06-11/,type=VORTAC; status=OPERATIONAL_RESTRICTED
PYE,PYE,Navigation aid,POINT REYES,38.07975666,-122.8678275,US,CA,POINT REYES,NAV,2026-06-11,Original user route list,https://www.faa.gov/air_traffic/flight_info/aeronav/Aero_Data/NASR_Subscription/2026-06-11/,type=VOR/DME; status=OPERATIONAL_RESTRICTED
QUART,QUART,Fix / reporting point / waypoint,,37.52365277,-77.71480277,US,VA,,FIX,2026-06-11,FAA-mined route text,https://www.faa.gov/air_traffic/flight_info/aeronav/Aero_Data/NASR_Subscription/2026-06-11/,"chartTypes=CONTROLLER HIGH,CONTROLLER LOW,ENROUTE HIGH,ENROUTE LOW,STAR"
RAMMS,RAMMS,Fix / reporting point / waypoint,,40.49355,-105.23881111,US,CO,,FIX,2026-06-11,Original user route list,https://www.faa.gov/air_traffic/flight_info/aeronav/Aero_Data/NASR_Subscription/2026-06-11/,"chartTypes=CONTROLLER HIGH,CONTROLLER LOW,ENROUTE HIGH,ENROUTE LOW,STAR"
RAYVO,RAYVO,Fix / reporting point / waypoint,,33.64558888,-80.0669,US,SC,,FIX,2026-06-11,FAA-mined route text,https://www.faa.gov/air_traffic/flight_info/aeronav/Aero_Data/NASR_Subscription/2026-06-11/,"chartTypes=CONTROLLER HIGH,ENROUTE HIGH"
RBL,RBL,Airport / landing facility,RED BLUFF MUNI,40.15030555,-122.25219444,US,CA,RED BLUFF,APT,2026-06-11,Original user route list,https://www.faa.gov/air_traffic/flight_info/aeronav/Aero_Data/NASR_Subscription/2026-06-11/,
RBL,RBL,Navigation aid,RED BLUFF,40.09890972,-122.23635038,US,CA,RED BLUFF,NAV,2026-06-11,Original user route list,https://www.faa.gov/air_traffic/flight_info/aeronav/Aero_Data/NASR_Subscription/2026-06-11/,type=VORTAC; status=OPERATIONAL_RESTRICTED
RBV,RBV,Navigation aid,ROBBINSVILLE,40.20240208,-74.49502611,US,NJ,ROBBINSVILLE,NAV,2026-06-11,FAA-mined route text,https://www.faa.gov/air_traffic/flight_info/aeronav/Aero_Data/NASR_Subscription/2026-06-11/,type=VORTAC; status=OPERATIONAL_IFR
RDU,RDU,Airport / landing facility,RALEIGH-DURHAM INTL,35.87763888,-78.78747222,US,NC,RALEIGH/DURHAM,APT,2026-06-11,Original user route list,https://www.faa.gov/air_traffic/flight_info/aeronav/Aero_Data/NASR_Subscription/2026-06-11/,
RDU,RDU,Navigation aid,RALEIGH/DURHAM,35.87252113,-78.78334211,US,NC,RALEIGH/DURHAM,NAV,2026-06-11,Original user route list,https://www.faa.gov/air_traffic/flight_info/aeronav/Aero_Data/NASR_Subscription/2026-06-11/,type=VORTAC; status=OPERATIONAL_IFR
ROBUC,ROBUC,Fix / reporting point / waypoint,,41.67891944,-71.58511666,US,RI,,FIX,2026-06-11,Original user route list,https://www.faa.gov/air_traffic/flight_info/aeronav/Aero_Data/NASR_Subscription/2026-06-11/,"chartTypes=CONTROLLER,STAR"
ROKKT,ROKKT,Fix / reporting point / waypoint,,30.62651111,-81.07401944,US,OA,,FIX,2026-06-11,FAA-mined route text,https://www.faa.gov/air_traffic/flight_info/aeronav/Aero_Data/NASR_Subscription/2026-06-11/,"chartTypes=CONTROLLER HIGH,ENROUTE HIGH,STAR"
ROYCO,ROYCO,Fix / reporting point / waypoint,,31.58621666,-81.03956944,US,GA,,FIX,2026-06-11,FAA-mined route text,https://www.faa.gov/air_traffic/flight_info/aeronav/Aero_Data/NASR_Subscription/2026-06-11/,"chartTypes=CONTROLLER HIGH,ENROUTE HIGH"
RRONS,RRONS,Fix / reporting point / waypoint,,42.68369722,-82.74949444,US,MI,,FIX,2026-06-11,FAA-mined route text,https://www.faa.gov/air_traffic/flight_info/aeronav/Aero_Data/NASR_Subscription/2026-06-11/,"chartTypes=CONTROLLER HIGH,ENROUTE HIGH"
RZS,RZS,Navigation aid,SAN MARCUS,34.50953197,-119.77098813,US,CA,SANTA BARBARA,NAV,2026-06-11,Original user route list,https://www.faa.gov/air_traffic/flight_info/aeronav/Aero_Data/NASR_Subscription/2026-06-11/,type=VORTAC; status=OPERATIONAL_RESTRICTED
SAC,SAC,Airport / landing facility,SACRAMENTO EXEC,38.51286138,-121.49330111,US,CA,SACRAMENTO,APT,2026-06-11,Original user route list,https://www.faa.gov/air_traffic/flight_info/aeronav/Aero_Data/NASR_Subscription/2026-06-11/,
SAC,SAC,Navigation aid,SACRAMENTO,38.4437393,-121.55165286,US,CA,SACRAMENTO,NAV,2026-06-11,Original user route list,https://www.faa.gov/air_traffic/flight_info/aeronav/Aero_Data/NASR_Subscription/2026-06-11/,type=VORTAC; status=OPERATIONAL_RESTRICTED
SAC,SAC,Navigation aid,SACRAMENTO EXECUTIVE,38.50972222,-121.49444444,US,CA,SACRAMENTO,NAV,2026-06-11,Original user route list,https://www.faa.gov/air_traffic/flight_info/aeronav/Aero_Data/NASR_Subscription/2026-06-11/,type=VOT; status=OPERATIONAL_IFR
SAN,SAN,Airport / landing facility,SAN DIEGO INTL,32.73356277,-117.18966333,US,CA,SAN DIEGO,APT,2026-06-11,Original user route list,https://www.faa.gov/air_traffic/flight_info/aeronav/Aero_Data/NASR_Subscription/2026-06-11/,
SAN,SAN,Navigation aid,MOUNT SOLEDAD,32.83976944,-117.25281388,US,CA,SAN DIEGO,NAV,2026-06-11,Original user route list,https://www.faa.gov/air_traffic/flight_info/aeronav/Aero_Data/NASR_Subscription/2026-06-11/,type=VOT; status=OPERATIONAL_IFR
SARAA,SARAA,Fix / reporting point / waypoint,,40.439325,-75.88786111,US,PA,,FIX,2026-06-11,Original user route list,https://www.faa.gov/air_traffic/flight_info/aeronav/Aero_Data/NASR_Subscription/2026-06-11/,"chartTypes=CONTROLLER HIGH,CONTROLLER LOW,ENROUTE HIGH,ENROUTE LOW,STAR"
SAWED,SAWED,Fix / reporting point / waypoint,,37.53353611,-75.85808333,US,VA,,FIX,2026-06-11,FAA-mined route text,https://www.faa.gov/air_traffic/flight_info/aeronav/Aero_Data/NASR_Subscription/2026-06-11/,"chartTypes=CONTROLLER HIGH,CONTROLLER LOW,ENROUTE HIGH"
SBV,SBV,Navigation aid,SOUTH BOSTON,36.67503858,-79.01449916,US,VA,SOUTH BOSTON,NAV,2026-06-11,Original user route list,https://www.faa.gov/air_traffic/flight_info/aeronav/Aero_Data/NASR_Subscription/2026-06-11/,type=VORTAC; status=OPERATIONAL_IFR
SBY,SBY,Airport / landing facility,SALISBURY-OCEAN CITY WICOMICO RGNL,38.34018944,-75.50947805,US,MD,SALISBURY,APT,2026-06-11,Original user route list,https://www.faa.gov/air_traffic/flight_info/aeronav/Aero_Data/NASR_Subscription/2026-06-11/,
SBY,SBY,Navigation aid,SALISBURY,38.34500558,-75.51057427,US,MD,SALISBURY,NAV,2026-06-11,Original user route list,https://www.faa.gov/air_traffic/flight_info/aeronav/Aero_Data/NASR_Subscription/2026-06-11/,type=TACAN; status=OPERATIONAL_RESTRICTED
SCOOB,SCOOB,Fix / reporting point / waypoint,,37.59222222,-76.63027777,US,VA,,FIX,2026-06-11,FAA-mined route text,https://www.faa.gov/air_traffic/flight_info/aeronav/Aero_Data/NASR_Subscription/2026-06-11/,"chartTypes=CONTROLLER HIGH,CONTROLLER LOW,ENROUTE HIGH,ENROUTE LOW,SID"
SEA,SEA,Airport / landing facility,SEATTLE-TACOMA INTL,47.44988888,-122.31177777,US,WA,SEATTLE,APT,2026-06-11,Original user route list,https://www.faa.gov/air_traffic/flight_info/aeronav/Aero_Data/NASR_Subscription/2026-06-11/,
SEA,SEA,Navigation aid,SEATTLE,47.43537316,-122.30961611,US,WA,SEATTLE,NAV,2026-06-11,Original user route list,https://www.faa.gov/air_traffic/flight_info/aeronav/Aero_Data/NASR_Subscription/2026-06-11/,type=VORTAC; status=OPERATIONAL_RESTRICTED
SEA,SEA,Navigation aid,SEATTLE-TACOMA,47.45555555,-122.30138888,US,WA,SEATTLE,NAV,2026-06-11,Original user route list,https://www.faa.gov/air_traffic/flight_info/aeronav/Aero_Data/NASR_Subscription/2026-06-11/,type=VOT; status=OPERATIONAL_IFR
SEAVU,SEAVU,Fix / reporting point / waypoint,,33.97241388,-117.48848611,US,CA,,FIX,2026-06-11,Original user route list,https://www.faa.gov/air_traffic/flight_info/aeronav/Aero_Data/NASR_Subscription/2026-06-11/,"chartTypes=IAP,STAR"
SERFR,SERFR,Fix / reporting point / waypoint,,36.06830555,-121.36466388,US,CA,,FIX,2026-06-11,Original user route list,https://www.faa.gov/air_traffic/flight_info/aeronav/Aero_Data/NASR_Subscription/2026-06-11/,"chartTypes=CONTROLLER HIGH,ENROUTE HIGH,STAR"
SEY,SEY,Navigation aid,SANDY POINT,41.16743611,-71.57608611,US,RI,BLOCK ISLAND,NAV,2026-06-11,Original user route list,https://www.faa.gov/air_traffic/flight_info/aeronav/Aero_Data/NASR_Subscription/2026-06-11/,type=VOR/DME; status=OPERATIONAL_RESTRICTED
SFO,SFO,Airport / landing facility,SAN FRANCISCO INTL,37.61880555,-122.37541666,US,CA,SAN FRANCISCO,APT,2026-06-11,Original user route list,https://www.faa.gov/air_traffic/flight_info/aeronav/Aero_Data/NASR_Subscription/2026-06-11/,
SFO,SFO,Navigation aid,SAN FRANCISCO,37.61948513,-122.37389347,US,CA,SAN FRANCISCO,NAV,2026-06-11,Original user route list,https://www.faa.gov/air_traffic/flight_info/aeronav/Aero_Data/NASR_Subscription/2026-06-11/,type=VOR/DME; status=OPERATIONAL_RESTRICTED
SFO,SFO,Navigation aid,SAN FRANCISCO,37.62031583,-122.3656463,US,CA,SAN FRANCISCO,NAV,2026-06-11,Original user route list,https://www.faa.gov/air_traffic/flight_info/aeronav/Aero_Data/NASR_Subscription/2026-06-11/,type=VOT; status=OPERATIONAL_IFR
SGF,SGF,Airport / landing facility,SPRINGFIELD-BRANSON NTL,37.24566138,-93.38862694,US,MO,SPRINGFIELD,APT,2026-06-11,Original user route list,https://www.faa.gov/air_traffic/flight_info/aeronav/Aero_Data/NASR_Subscription/2026-06-11/,
SGF,SGF,Navigation aid,SPRINGFIELD,37.35594713,-93.33404452,US,MO,SPRINGFIELD,NAV,2026-06-11,Original user route list,https://www.faa.gov/air_traffic/flight_info/aeronav/Aero_Data/NASR_Subscription/2026-06-11/,type=VORTAC; status=OPERATIONAL_RESTRICTED
SIE,SIE,Navigation aid,SEA ISLE,39.095509,-74.80034394,US,NJ,SEA ISLE,NAV,2026-06-11,FAA-mined route text,https://www.faa.gov/air_traffic/flight_info/aeronav/Aero_Data/NASR_Subscription/2026-06-11/,type=VORTAC; status=OPERATIONAL_RESTRICTED
SITTH,SITTH,Fix / reporting point / waypoint,,33.19051111,-83.82254166,US,GA,,FIX,2026-06-11,Original user route list,https://www.faa.gov/air_traffic/flight_info/aeronav/Aero_Data/NASR_Subscription/2026-06-11/,"chartTypes=CONTROLLER,ENROUTE HIGH,ENROUTE LOW,STAR"
SITTR,SITTR,Fix / reporting point / waypoint,,37.78031388,-81.12325,US,WV,,FIX,2026-06-11,FAA-mined route text,https://www.faa.gov/air_traffic/flight_info/aeronav/Aero_Data/NASR_Subscription/2026-06-11/,"chartTypes=CONTROLLER HIGH,CONTROLLER LOW,ENROUTE HIGH,ENROUTE LOW,SID,STAR"
SJC,SJC,Airport / landing facility,NORMAN Y MINETA SAN JOSE INTL,37.36299472,-121.92862055,US,CA,SAN JOSE,APT,2026-06-11,Original user route list,https://www.faa.gov/air_traffic/flight_info/aeronav/Aero_Data/NASR_Subscription/2026-06-11/,
SJC,SJC,Navigation aid,SAN JOSE,37.37471216,-121.94466858,US,CA,SAN JOSE,NAV,2026-06-11,Original user route list,https://www.faa.gov/air_traffic/flight_info/aeronav/Aero_Data/NASR_Subscription/2026-06-11/,type=VOR/DME; status=OPERATIONAL_RESTRICTED
SJN,SJN,Airport / landing facility,ST JOHNS INDUSTRIAL AIR PARK,34.51855555,-109.37875,US,AZ,ST JOHNS,APT,2026-06-11,Original user route list,https://www.faa.gov/air_traffic/flight_info/aeronav/Aero_Data/NASR_Subscription/2026-06-11/,
SJN,SJN,Navigation aid,ST JOHNS,34.42404166,-109.14353055,US,AZ,ST JOHNS,NAV,2026-06-11,Original user route list,https://www.faa.gov/air_traffic/flight_info/aeronav/Aero_Data/NASR_Subscription/2026-06-11/,type=VORTAC; status=OPERATIONAL_RESTRICTED
SLOJO,SLOJO,Fix / reporting point / waypoint,,34.64619722,-80.65711944,US,SC,,FIX,2026-06-11,FAA-mined route text,https://www.faa.gov/air_traffic/flight_info/aeronav/Aero_Data/NASR_Subscription/2026-06-11/,"chartTypes=CONTROLLER HIGH,CONTROLLER LOW,ENROUTE HIGH"
SLT,SLT,Navigation aid,SLATE RUN,41.51275944,-77.97010972,US,PA,SLATE RUN,NAV,2026-06-11,FAA-mined route text,https://www.faa.gov/air_traffic/flight_info/aeronav/Aero_Data/NASR_Subscription/2026-06-11/,type=VORTAC; status=OPERATIONAL_IFR
SMITZ,SMITZ,Fix / reporting point / waypoint,,34.409375,-87.47896666,US,AL,,FIX,2026-06-11,FAA-mined route text,https://www.faa.gov/air_traffic/flight_info/aeronav/Aero_Data/NASR_Subscription/2026-06-11/,"chartTypes=CONTROLLER LOW,ENROUTE LOW"
SNY,SNY,Airport / landing facility,SIDNEY MUNI/LLOYD W CARR FLD,41.09976083,-102.98499305,US,NE,SIDNEY,APT,2026-06-11,Original user route list,https://www.faa.gov/air_traffic/flight_info/aeronav/Aero_Data/NASR_Subscription/2026-06-11/,
SNY,SNY,Navigation aid,SIDNEY,41.09668241,-102.98299272,US,NE,SIDNEY,NAV,2026-06-11,Original user route list,https://www.faa.gov/air_traffic/flight_info/aeronav/Aero_Data/NASR_Subscription/2026-06-11/,type=VOR/DME; status=OPERATIONAL_RESTRICTED
SPA,SPA,Airport / landing facility,SPARTANBURG DOWNTOWN MEML/SIMPSON FLD,34.91640527,-81.95577083,US,SC,SPARTANBURG,APT,2026-06-11,Original user route list,https://www.faa.gov/air_traffic/flight_info/aeronav/Aero_Data/NASR_Subscription/2026-06-11/,
SPA,SPA,Navigation aid,SPARTANBURG,35.03362588,-81.92701,US,SC,SPARTANBURG,NAV,2026-06-11,Original user route list,https://www.faa.gov/air_traffic/flight_info/aeronav/Aero_Data/NASR_Subscription/2026-06-11/,type=VORTAC; status=OPERATIONAL_RESTRICTED
SQS,SQS,Navigation aid,SIDON,33.46384936,-90.27735055,US,MS,SIDON,NAV,2026-06-11,Original user route list,https://www.faa.gov/air_traffic/flight_info/aeronav/Aero_Data/NASR_Subscription/2026-06-11/,type=VORTAC; status=OPERATIONAL_RESTRICTED
STINS,STINS,Fix / reporting point / waypoint,,37.82367777,-122.75668333,US,CA,,FIX,2026-06-11,Original user route list,https://www.faa.gov/air_traffic/flight_info/aeronav/Aero_Data/NASR_Subscription/2026-06-11/,"chartTypes=AREA,CONTROLLER LOW,ENROUTE LOW,IAP,SID,STAR"
STL,STL,Airport / landing facility,ST LOUIS LAMBERT INTL,38.74869822,-90.37002572,US,MO,ST LOUIS,APT,2026-06-11,Original user route list,https://www.faa.gov/air_traffic/flight_info/aeronav/Aero_Data/NASR_Subscription/2026-06-11/,
STL,STL,Navigation aid,ST LOUIS,38.8607233,-90.48234888,US,MO,ST LOUIS,NAV,2026-06-11,Original user route list,https://www.faa.gov/air_traffic/flight_info/aeronav/Aero_Data/NASR_Subscription/2026-06-11/,type=VORTAC; status=OPERATIONAL_RESTRICTED
STL,STL,Navigation aid,ST LOUIS LAMBERT,38.74326025,-90.36600158,US,MO,ST LOUIS,NAV,2026-06-11,Original user route list,https://www.faa.gov/air_traffic/flight_info/aeronav/Aero_Data/NASR_Subscription/2026-06-11/,type=VOT; status=OPERATIONAL_IFR
STOEN,STOEN,Fix / reporting point / waypoint,,39.83820555,-75.79858888,US,PA,,FIX,2026-06-11,FAA-mined route text,https://www.faa.gov/air_traffic/flight_info/aeronav/Aero_Data/NASR_Subscription/2026-06-11/,"chartTypes=CONTROLLER HIGH,CONTROLLER LOW,ENROUTE HIGH,ENROUTE LOW,SID"
STORZ,STORZ,Fix / reporting point / waypoint,,46.23288611,-105.21452777,US,MT,,FIX,2026-06-11,FAA-mined route text,https://www.faa.gov/air_traffic/flight_info/aeronav/Aero_Data/NASR_Subscription/2026-06-11/,"chartTypes=CONTROLLER HIGH,ENROUTE HIGH"
STV,STV,Navigation aid,STONEWALL,30.20675944,-98.70575527,US,TX,STONEWALL,NAV,2026-06-11,Original user route list,https://www.faa.gov/air_traffic/flight_info/aeronav/Aero_Data/NASR_Subscription/2026-06-11/,type=VORTAC; status=OPERATIONAL_RESTRICTED
SUTTN,SUTTN,Fix / reporting point / waypoint,,33.50578055,-92.364775,US,AR,,FIX,2026-06-11,FAA-mined route text,https://www.faa.gov/air_traffic/flight_info/aeronav/Aero_Data/NASR_Subscription/2026-06-11/,"chartTypes=CONTROLLER,ENROUTE HIGH"
TAY,TAY,Navigation aid,TAYLOR,30.50463777,-82.55290333,US,FL,TAYLOR,NAV,2026-06-11,Original user route list,https://www.faa.gov/air_traffic/flight_info/aeronav/Aero_Data/NASR_Subscription/2026-06-11/,type=TACAN; status=OPERATIONAL_IFR
TEBEE,TEBEE,Fix / reporting point / waypoint,,39.50388055,-75.32699722,US,NJ,,FIX,2026-06-11,FAA-mined route text,https://www.faa.gov/air_traffic/flight_info/aeronav/Aero_Data/NASR_Subscription/2026-06-11/,"chartTypes=AREA,CONTROLLER LOW,ENROUTE LOW,SID,STAR"
TEEEM,TEEEM,Fix / reporting point / waypoint,,32.14477777,-81.91404722,US,GA,,FIX,2026-06-11,FAA-mined route text,https://www.faa.gov/air_traffic/flight_info/aeronav/Aero_Data/NASR_Subscription/2026-06-11/,"chartTypes=CONTROLLER HIGH,ENROUTE HIGH"
TEESY,TEESY,Fix / reporting point / waypoint,,41.42110833,-80.11182222,US,PA,,FIX,2026-06-11,FAA-mined route text,https://www.faa.gov/air_traffic/flight_info/aeronav/Aero_Data/NASR_Subscription/2026-06-11/,"chartTypes=CONTROLLER HIGH,ENROUTE HIGH"
TEUFL,TEUFL,Fix / reporting point / waypoint,,31.86679444,-82.01793333,US,GA,,FIX,2026-06-11,FAA-mined route text,https://www.faa.gov/air_traffic/flight_info/aeronav/Aero_Data/NASR_Subscription/2026-06-11/,"chartTypes=CONTROLLER HIGH,ENROUTE HIGH"
THHMP,THHMP,Fix / reporting point / waypoint,,37.49151944,-77.31909722,US,VA,,FIX,2026-06-11,FAA-mined route text,https://www.faa.gov/air_traffic/flight_info/aeronav/Aero_Data/NASR_Subscription/2026-06-11/,"chartTypes=CONTROLLER HIGH,CONTROLLER LOW,ENROUTE HIGH,ENROUTE LOW,MILITARY STAR,SID,STAR"
TPA,TPA,Airport / landing facility,TAMPA INTL,27.97546944,-82.5332475,US,FL,TAMPA,APT,2026-06-11,Original user route list,https://www.faa.gov/air_traffic/flight_info/aeronav/Aero_Data/NASR_Subscription/2026-06-11/,
TRPOD,TRPOD,Fix / reporting point / waypoint,,38.33898055,-75.53384722,US,MD,,FIX,2026-06-11,FAA-mined route text,https://www.faa.gov/air_traffic/flight_info/aeronav/Aero_Data/NASR_Subscription/2026-06-11/,"chartTypes=CONTROLLER HIGH,CONTROLLER LOW,ENROUTE HIGH,ENROUTE LOW,IAP,SECTIONAL,STAR"
TUL,TUL,Airport / landing facility,TULSA INTL,36.19839333,-95.88810527,US,OK,TULSA,APT,2026-06-11,Original user route list + FAA-mined route text,https://www.faa.gov/air_traffic/flight_info/aeronav/Aero_Data/NASR_Subscription/2026-06-11/,
TUL,TUL,Navigation aid,TULSA,36.19625341,-95.78809038,US,OK,TULSA,NAV,2026-06-11,Original user route list + FAA-mined route text,https://www.faa.gov/air_traffic/flight_info/aeronav/Aero_Data/NASR_Subscription/2026-06-11/,type=VORTAC; status=OPERATIONAL_IFR
TUL,TUL,Navigation aid,TULSA INTL,36.20009444,-95.88360277,US,OK,TULSA,NAV,2026-06-11,Original user route list + FAA-mined route text,https://www.faa.gov/air_traffic/flight_info/aeronav/Aero_Data/NASR_Subscription/2026-06-11/,type=VOT; status=OPERATIONAL_IFR
TUS,TUS,Airport / landing facility,TUCSON INTL,32.11707027,-110.9414625,US,AZ,TUCSON,APT,2026-06-11,Original user route list,https://www.faa.gov/air_traffic/flight_info/aeronav/Aero_Data/NASR_Subscription/2026-06-11/,
TUS,TUS,Navigation aid,TUCSON,32.09520266,-110.91485502,US,AZ,TUCSON,NAV,2026-06-11,Original user route list,https://www.faa.gov/air_traffic/flight_info/aeronav/Aero_Data/NASR_Subscription/2026-06-11/,type=VORTAC; status=OPERATIONAL_RESTRICTED
TYI,TYI,Navigation aid,TAR RIVER,35.97672361,-77.70373166,US,NC,ROCKY MOUNT,NAV,2026-06-11,Original user route list,https://www.faa.gov/air_traffic/flight_info/aeronav/Aero_Data/NASR_Subscription/2026-06-11/,type=VORTAC; status=OPERATIONAL_RESTRICTED
VAD,VAD,Airport / landing facility,MOODY AFB,30.96870277,-83.19296666,US,GA,VALDOSTA,APT,2026-06-11,Original user route list,https://www.faa.gov/air_traffic/flight_info/aeronav/Aero_Data/NASR_Subscription/2026-06-11/,
VAD,VAD,Navigation aid,MOODY,30.96008333,-83.19345277,US,GA,VALDOSTA,NAV,2026-06-11,Original user route list,https://www.faa.gov/air_traffic/flight_info/aeronav/Aero_Data/NASR_Subscription/2026-06-11/,type=TACAN; status=OPERATIONAL_RESTRICTED
VHP,VHP,Navigation aid,BRICKYARD,39.81472905,-86.36749977,US,IN,INDIANAPOLIS,NAV,2026-06-11,Original user route list,https://www.faa.gov/air_traffic/flight_info/aeronav/Aero_Data/NASR_Subscription/2026-06-11/,type=VORTAC; status=OPERATIONAL_RESTRICTED
VIO,VIO,Navigation aid,VICTORY,42.78671727,-85.49707277,US,MI,GRAND RAPIDS,NAV,2026-06-11,Original user route list,https://www.faa.gov/air_traffic/flight_info/aeronav/Aero_Data/NASR_Subscription/2026-06-11/,type=VOR/DME; status=OPERATIONAL_RESTRICTED
VIYAP,VIYAP,Fix / reporting point / waypoint,,31.25226388,-81.43560555,US,GA,,FIX,2026-06-11,FAA-mined route text,https://www.faa.gov/air_traffic/flight_info/aeronav/Aero_Data/NASR_Subscription/2026-06-11/,"chartTypes=CONTROLLER HIGH,CONTROLLER LOW,ENROUTE HIGH,ENROUTE LOW,SID"
VTU,VTU,Navigation aid,VENTURA,34.11506461,-119.04949866,US,CA,OXNARD,NAV,2026-06-11,Original user route list,https://www.faa.gov/air_traffic/flight_info/aeronav/Aero_Data/NASR_Subscription/2026-06-11/,type=VOR/DME; status=OPERATIONAL_RESTRICTED
VUZ,VUZ,Navigation aid,VULCAN,33.67013233,-86.89983716,US,AL,BIRMINGHAM,NAV,2026-06-11,FAA-mined route text,https://www.faa.gov/air_traffic/flight_info/aeronav/Aero_Data/NASR_Subscription/2026-06-11/,type=VORTAC; status=OPERATIONAL_RESTRICTED
WATSN,WATSN,Fix / reporting point / waypoint,,41.28345277,-86.03533611,US,IN,,FIX,2026-06-11,Original user route list,https://www.faa.gov/air_traffic/flight_info/aeronav/Aero_Data/NASR_Subscription/2026-06-11/,"chartTypes=CONTROLLER HIGH,CONTROLLER LOW,ENROUTE HIGH,ENROUTE LOW,STAR"
WAVER,WAVER,Fix / reporting point / waypoint,,30.11822222,-98.34405555,US,TX,,FIX,2026-06-11,Original user route list,https://www.faa.gov/air_traffic/flight_info/aeronav/Aero_Data/NASR_Subscription/2026-06-11/,chartTypes=ENROUTE HIGH
WAVES,WAVES,Fix / reporting point / waypoint,,37.58709444,-77.44778611,US,VA,,FIX,2026-06-11,FAA-mined route text,https://www.faa.gov/air_traffic/flight_info/aeronav/Aero_Data/NASR_Subscription/2026-06-11/,"chartTypes=CONTROLLER LOW,ENROUTE LOW,SECTIONAL,STAR"
WEVEL,WEVEL,Fix / reporting point / waypoint,,41.25032222,-78.45807777,US,PA,,FIX,2026-06-11,FAA-mined route text,https://www.faa.gov/air_traffic/flight_info/aeronav/Aero_Data/NASR_Subscription/2026-06-11/,"chartTypes=CONTROLLER HIGH,ENROUTE HIGH"
WHITE,WHITE,Fix / reporting point / waypoint,,40.00675555,-74.25128055,US,NJ,,FIX,2026-06-11,Original user route list,https://www.faa.gov/air_traffic/flight_info/aeronav/Aero_Data/NASR_Subscription/2026-06-11/,"chartTypes=CONTROLLER HIGH,CONTROLLER LOW,ENROUTE HIGH,ENROUTE LOW,SECTIONAL,SID,SPECIAL IAP"
WHYYT,WHYYT,Fix / reporting point / waypoint,,31.01260277,-82.25560277,US,GA,,FIX,2026-06-11,FAA-mined route text,https://www.faa.gov/air_traffic/flight_info/aeronav/Aero_Data/NASR_Subscription/2026-06-11/,"chartTypes=CONTROLLER HIGH,CONTROLLER LOW,ENROUTE HIGH,ENROUTE LOW,STAR"
WLKES,WLKES,Fix / reporting point / waypoint,,41.27293611,-75.68933333,US,PA,,FIX,2026-06-11,FAA-mined route text,https://www.faa.gov/air_traffic/flight_info/aeronav/Aero_Data/NASR_Subscription/2026-06-11/,"chartTypes=CONTROLLER HIGH,CONTROLLER LOW,ENROUTE HIGH,ENROUTE LOW,SECTIONAL,STAR"
WOONS,WOONS,Fix / reporting point / waypoint,,41.950575,-71.50703888,US,RI,,FIX,2026-06-11,Original user route list,https://www.faa.gov/air_traffic/flight_info/aeronav/Aero_Data/NASR_Subscription/2026-06-11/,"chartTypes=AREA,CONTROLLER LOW,ENROUTE LOW,IAP,SECTIONAL,STAR"
WURFL,WURFL,Fix / reporting point / waypoint,,32.52960833,-81.01890833,US,SC,,FIX,2026-06-11,FAA-mined route text,https://www.faa.gov/air_traffic/flight_info/aeronav/Aero_Data/NASR_Subscription/2026-06-11/,"chartTypes=CONTROLLER HIGH,ENROUTE HIGH"
WWSHR,WWSHR,Fix / reporting point / waypoint,,41.34280277,-82.0516,US,OH,,FIX,2026-06-11,FAA-mined route text,https://www.faa.gov/air_traffic/flight_info/aeronav/Aero_Data/NASR_Subscription/2026-06-11/,"chartTypes=CONTROLLER HIGH,ENROUTE HIGH,SID,STAR"
YURCK,YURCK,Fix / reporting point / waypoint,,34.18744444,-78.87795,US,NC,,FIX,2026-06-11,FAA-mined route text,https://www.faa.gov/air_traffic/flight_info/aeronav/Aero_Data/NASR_Subscription/2026-06-11/,"chartTypes=CONTROLLER HIGH,ENROUTE HIGH"
YYZ,CYYZ,Airport / landing facility,LESTER B PEARSON INTL,43.67722222,-79.63055555,CA,,TORONTO,APT,2026-06-11,Original user route list,https://www.faa.gov/air_traffic/flight_info/aeronav/Aero_Data/NASR_Subscription/2026-06-11/,Airport alias match for YYZ -> CYYZ
YYZ,YYZ,Navigation aid,TORONTO,43.65802041,-79.6314313,CA,,TORONTO,NAV,2026-06-11,Original user route list,https://www.faa.gov/air_traffic/flight_info/aeronav/Aero_Data/NASR_Subscription/2026-06-11/,type=VOR/DME; status=OPERATIONAL_IFR
ZZIPR,ZZIPR,Fix / reporting point / waypoint,,43.18583333,-91.65916666,US,IA,,FIX,2026-06-11,FAA-mined route text,https://www.faa.gov/air_traffic/flight_info/aeronav/Aero_Data/NASR_Subscription/2026-06-11/,"chartTypes=ENROUTE HIGH,ENROUTE LOW,STAR"
